{
  "type": "FeatureCollection",
  "features": [
    {"type":"Feature","properties":{"zip_code":"98115","no_stories":"1","confirmation_source":"Field Visit","city":"Seattle","year_built":"1923","state":"WA","neighborhood":"Green Lake","building_use":"Commercial","preliminary_risk_category":"Medium Risk","retrofit_level":"No visible retrofit","address":"410 NE 72nd St","estimated_number_of_occupants":"1-10"},"geometry":{"type":"Point","coordinates":[-122.324214,47.680601]}},{"type":"Feature","properties":{"zip_code":"98104","no_stories":"3","confirmation_source":"Field Visit","city":"Seattle","year_built":"1900","state":"WA","neighborhood":"Pioneer Square/Chinatown International District","building_use":"Office","preliminary_risk_category":"Medium Risk","retrofit_level":"Substantial Alteration","address":"423 2nd Av Et S","estimated_number_of_occupants":"11-100"},"geometry":{"type":"Point","coordinates":[-122.33183000000001,47.601527]}},{"type":"Feature","properties":{"zip_code":"98107","no_stories":"3","confirmation_source":"Google Street View","city":"Seattle","year_built":"1900","state":"WA","neighborhood":"Ballard","building_use":"Residential","preliminary_risk_category":"Medium Risk","retrofit_level":"Permitted Retrofit","address":"2021 NW 58th St","estimated_number_of_occupants":"11-100"},"geometry":{"type":"Point","coordinates":[-122.382957,47.670916]}},{"type":"Feature","properties":{"zip_code":"98105","no_stories":"4","confirmation_source":"Google Street View","city":"Seattle","year_built":"1925","state":"WA","neighborhood":"Univ Dist","building_use":"Residential","preliminary_risk_category":"Medium Risk","retrofit_level":"No visible retrofit","address":"4203 Brooklyn Ave NE","estimated_number_of_occupants":"11-100"},"geometry":{"type":"Point","coordinates":[-122.31435900000001,47.658516]}},{"type":"Feature","properties":{"zip_code":"98104","no_stories":"4","confirmation_source":"Field Visit","city":"Seattle","year_built":"1906","state":"WA","neighborhood":"Pioneer Square/Chinatown International District","building_use":"Commercial/Office","preliminary_risk_category":"High Risk","retrofit_level":"Permitted Retrofit","address":"222 2nd Av Et S","estimated_number_of_occupants":"11-100"},"geometry":{"type":"Point","coordinates":[-122.330167,47.599746]}},{"type":"Feature","properties":{"zip_code":"98108","no_stories":"1","confirmation_source":"Google Street View","city":"Seattle","year_built":"1924","state":"WA","neighborhood":"Georgetown","building_use":"Commercial","preliminary_risk_category":"Medium Risk","retrofit_level":"Substantial Alteration","address":"5625 Airport Way S","estimated_number_of_occupants":"101+"},"geometry":{"type":"Point","coordinates":[-122.319202,47.551547]}},{"type":"Feature","properties":{"zip_code":"98105","no_stories":"3","confirmation_source":"Field Visit","city":"Seattle","year_built":"1924","state":"WA","neighborhood":"Univ Dist","building_use":"Residential","preliminary_risk_category":"Medium Risk","retrofit_level":"No visible retrofit","address":"1304 NE 42nd St","estimated_number_of_occupants":"11-100"},"geometry":{"type":"Point","coordinates":[-122.314072,47.658331]}},{"type":"Feature","properties":{"zip_code":"98122","no_stories":"2","confirmation_source":"Field Visit","city":"Seattle","year_built":"1901","state":"WA","neighborhood":"Central Area/Squire Park","building_use":"Public Assembly","preliminary_risk_category":"High Risk","retrofit_level":"No visible retrofit","address":"800 18th Ave","estimated_number_of_occupants":"101+"},"geometry":{"type":"Point","coordinates":[-122.30889100000002,47.610034]}},{"type":"Feature","properties":{"zip_code":"98121","no_stories":"3","confirmation_source":"Google Street View","city":"Seattle","year_built":"1942","state":"WA","neighborhood":"Belltown","building_use":"Public Assembly","preliminary_risk_category":"High Risk","retrofit_level":"No visible retrofit","address":"2800 1st Ave","estimated_number_of_occupants":"101+"},"geometry":{"type":"Point","coordinates":[-122.352021,47.616627]}},{"type":"Feature","properties":{"zip_code":"98144","no_stories":"2","confirmation_source":"Google Street View","city":"Seattle","year_built":"1931","state":"WA","neighborhood":"North Beacon Hill/Jefferson Park","building_use":"Public Assembly","preliminary_risk_category":"High Risk","retrofit_level":"No visible retrofit","address":"2801 15th Ave S","estimated_number_of_occupants":"101+"},"geometry":{"type":"Point","coordinates":[-122.31337099999999,47.578632000000006]}},{"type":"Feature","properties":{"zip_code":"98121","no_stories":"2","confirmation_source":"Google Street View","city":"Seattle","year_built":"1904","state":"WA","neighborhood":"Belltown","building_use":"Commercial","preliminary_risk_category":"Medium Risk","retrofit_level":"Visible retrofit","address":"2112 1st Ave","estimated_number_of_occupants":"101+"},"geometry":{"type":"Point","coordinates":[-122.34449,47.612157]}},{"type":"Feature","properties":{"zip_code":"98104","no_stories":"2","confirmation_source":"Google Street View","city":"Seattle","year_built":"1902","state":"WA","neighborhood":"Duwamish/SODO","building_use":"Commercial/Residential","preliminary_risk_category":"Medium Risk","retrofit_level":"No visible retrofit","address":"123 S Jackson St","estimated_number_of_occupants":"11-100"},"geometry":{"type":"Point","coordinates":[-122.333159,47.599211000000004]}},{"type":"Feature","properties":{"zip_code":"98103","no_stories":"5","confirmation_source":"Permit Drawing Review","city":"Seattle","year_built":"1906","state":"WA","neighborhood":"Wallingford","building_use":"Schools","preliminary_risk_category":"Critical Risk","retrofit_level":"Permitted Retrofit","address":"4649 Sunnyside Ave N","estimated_number_of_occupants":"101+"},"geometry":{"type":"Point","coordinates":[-122.330171,47.663831]}},{"type":"Feature","properties":{"zip_code":"98121","no_stories":"2","confirmation_source":"Google Street View","city":"Seattle","year_built":"1919","state":"WA","neighborhood":"Cascade/Eastlake","building_use":"Office","preliminary_risk_category":"Medium Risk","retrofit_level":"No visible retrofit","address":"2132 3rd Ave","estimated_number_of_occupants":"11-100"},"geometry":{"type":"Point","coordinates":[-122.34332599999999,47.613835]}},{"type":"Feature","properties":{"zip_code":"98104","no_stories":"5","confirmation_source":"Field Visit","city":"Seattle","year_built":"1914","state":"WA","neighborhood":"Pioneer Square/Chinatown International District","building_use":"Residential","preliminary_risk_category":"High Risk","retrofit_level":"Substantial Alteration","address":"212 Alaskan Way S","estimated_number_of_occupants":"101+"},"geometry":{"type":"Point","coordinates":[-122.335515,47.600386]}},{"type":"Feature","properties":{"zip_code":"98119","no_stories":"5","confirmation_source":"Google Street View","city":"Seattle","year_built":"1914","state":"WA","neighborhood":"Queen Anne","building_use":"Residential","preliminary_risk_category":"Medium Risk","retrofit_level":"No visible retrofit","address":"25 W Roy St","estimated_number_of_occupants":"101+"},"geometry":{"type":"Point","coordinates":[-122.357608,47.625698]}},{"type":"Feature","properties":{"zip_code":"98121","no_stories":"4","confirmation_source":"Google Street View","city":"Seattle","year_built":"1918","state":"WA","neighborhood":"Cascade/Eastlake","building_use":"Residential","preliminary_risk_category":"Medium Risk","retrofit_level":"Permitted Retrofit","address":"2321 4th Ave","estimated_number_of_occupants":"11-100"},"geometry":{"type":"Point","coordinates":[-122.344693,47.615808]}},{"type":"Feature","properties":{"zip_code":"98108","no_stories":"2","confirmation_source":"Google Street View","city":"Seattle","year_built":"1906","state":"WA","neighborhood":"Georgetown","building_use":"Office","preliminary_risk_category":"Medium Risk","retrofit_level":"No visible retrofit","address":"5501 Airport Way S","estimated_number_of_occupants":"11-100"},"geometry":{"type":"Point","coordinates":[-122.321082,47.553357]}},{"type":"Feature","properties":{"zip_code":"98105","no_stories":"1","confirmation_source":"Google Street View","city":"Seattle","year_built":"1920","state":"WA","neighborhood":"Univ Dist","building_use":"Commercial","preliminary_risk_category":"Medium Risk","retrofit_level":"No visible retrofit","address":"4133 University Way NE","estimated_number_of_occupants":"11-100"},"geometry":{"type":"Point","coordinates":[-122.313237,47.657333]}},{"type":"Feature","properties":{"zip_code":"98122","no_stories":"3","confirmation_source":"Photos from Previous Surveys","city":"Seattle","year_built":"1920","state":"WA","neighborhood":"Capitol Hill","building_use":"Residential","preliminary_risk_category":"Medium Risk","retrofit_level":"No visible retrofit","address":"1820 Boylston Ave","estimated_number_of_occupants":"11-100"},"geometry":{"type":"Point","coordinates":[-122.32343899999998,47.61822900000001]}},{"type":"Feature","properties":{"zip_code":"98104","no_stories":"6","confirmation_source":"Field Visit","city":"Seattle","year_built":"1902","state":"WA","neighborhood":"Pioneer Square/Chinatown International District","building_use":"Other Mixed Uses","preliminary_risk_category":"High Risk","retrofit_level":"Visible retrofit","address":"114 Alaskan Way S","estimated_number_of_occupants":"101+"},"geometry":{"type":"Point","coordinates":[-122.33567900000001,47.601107]}},{"type":"Feature","properties":{"zip_code":"98104","no_stories":"5","confirmation_source":"Permit Drawing Review","city":"Seattle","year_built":"1909","state":"WA","neighborhood":"Duwamish/SODO","building_use":"Commercial/Residential","preliminary_risk_category":"High Risk","retrofit_level":"Permitted Retrofit","address":"526 1st Ave S","estimated_number_of_occupants":"101+"},"geometry":{"type":"Point","coordinates":[-122.334152,47.597566]}},{"type":"Feature","properties":{"zip_code":"98195","no_stories":"2","confirmation_source":"University of Washington Facilities List","city":"Seattle","year_built":"1938","state":"WA","neighborhood":"Univ Dist","building_use":"Industrial","preliminary_risk_category":"Medium Risk","retrofit_level":"Permitted Retrofit","address":"3900 Jefferson Rd NE","estimated_number_of_occupants":"1-10"},"geometry":{"type":"Point","coordinates":[-122.30413500000002,47.652945]}},{"type":"Feature","properties":{"zip_code":"98109","no_stories":"1","confirmation_source":"Google Street View","city":"Seattle","year_built":"1947","state":"WA","neighborhood":"Queen Anne","building_use":"Commercial","preliminary_risk_category":"Medium Risk","retrofit_level":"No visible retrofit","address":"2135 Queen Anne Ave N","estimated_number_of_occupants":"11-100"},"geometry":{"type":"Point","coordinates":[-122.35693399999998,47.63793]}},{"type":"Feature","properties":{"zip_code":"98101","no_stories":"3","confirmation_source":"Permit Drawing Review","city":"Seattle","year_built":"1902","state":"WA","neighborhood":"Downtown","building_use":"Commercial/Office","preliminary_risk_category":"Medium Risk","retrofit_level":"Substantial Alteration","address":"1416 3rd Ave","estimated_number_of_occupants":"101+"},"geometry":{"type":"Point","coordinates":[-122.33717300000002,47.609054]}},{"type":"Feature","properties":{"zip_code":"98122","no_stories":"2","confirmation_source":"Google Street View","city":"Seattle","year_built":"1921","state":"WA","neighborhood":"Capitol Hill","building_use":"Commercial/Office","preliminary_risk_category":"Medium Risk","retrofit_level":"No visible retrofit","address":"1617 Boylston Ave","estimated_number_of_occupants":"11-100"},"geometry":{"type":"Point","coordinates":[-122.32342299999999,47.615831]}},{"type":"Feature","properties":{"zip_code":"98119","no_stories":"2","confirmation_source":"Field Visit","city":"Seattle","year_built":"1905","state":"WA","neighborhood":"Queen Anne","building_use":"Public Assembly","preliminary_risk_category":"High Risk","retrofit_level":"No visible retrofit","address":"1608 4th Ave W","estimated_number_of_occupants":"101+"},"geometry":{"type":"Point","coordinates":[-122.362375,47.633976]}},{"type":"Feature","properties":{"zip_code":"98116","no_stories":"1","confirmation_source":"Photos from Previous Surveys","city":"Seattle","year_built":"1915","state":"WA","neighborhood":"Alki/Admiral","building_use":"Commercial","preliminary_risk_category":"Medium Risk","retrofit_level":"No visible retrofit","address":"1321 Harbor Ave SW","estimated_number_of_occupants":"11-100"},"geometry":{"type":"Point","coordinates":[-122.38248700000001,47.591454000000006]}},{"type":"Feature","properties":{"zip_code":"98126","no_stories":"1","confirmation_source":"Google Street View","city":"Seattle","year_built":"1926","state":"WA","neighborhood":"North Delridge","building_use":"Government","preliminary_risk_category":"Medium Risk","retrofit_level":"No visible retrofit","address":"3214 SW Spokane St","estimated_number_of_occupants":"1-10"},"geometry":{"type":"Point","coordinates":[-122.37392199999998,47.571949]}},{"type":"Feature","properties":{"zip_code":"98136","no_stories":"1","confirmation_source":"Google Street View","city":"Seattle","year_built":"1926","state":"WA","neighborhood":"Fauntleroy/Seaview","building_use":"Commercial","preliminary_risk_category":"Medium Risk","retrofit_level":"No visible retrofit","address":"9251 45th Ave SW","estimated_number_of_occupants":"11-100"},"geometry":{"type":"Point","coordinates":[-122.39028199999998,47.520481]}},{"type":"Feature","properties":{"zip_code":"98103","no_stories":"1","confirmation_source":"Field Visit","city":"Seattle","year_built":"1928","state":"WA","neighborhood":"Greenwood/Phinney Ridge","building_use":"Commercial","preliminary_risk_category":"Medium Risk","retrofit_level":"No visible retrofit","address":"8558 Greenwood Ave N","estimated_number_of_occupants":"101+"},"geometry":{"type":"Point","coordinates":[-122.35531800000001,47.691585]}},{"type":"Feature","properties":{"zip_code":"98101","no_stories":"5","confirmation_source":"Photos from Previous Surveys","city":"Seattle","year_built":"1906","state":"WA","neighborhood":"Belltown","building_use":"Commercial/Residential","preliminary_risk_category":"Medium Risk","retrofit_level":"Visible retrofit","address":"1924 Post Al","estimated_number_of_occupants":"11-100"},"geometry":{"type":"Point","coordinates":[-122.34205299999999,47.610146]}},{"type":"Feature","properties":{"zip_code":"98103","no_stories":"2","confirmation_source":"Google Street View","city":"Seattle","year_built":"1926","state":"WA","neighborhood":"Wallingford","building_use":"Commercial/Residential","preliminary_risk_category":"Medium Risk","retrofit_level":"No visible retrofit","address":"1723 N 45th St","estimated_number_of_occupants":"101+"},"geometry":{"type":"Point","coordinates":[-122.336435,47.661381000000006]}},{"type":"Feature","properties":{"zip_code":"98104","no_stories":"5","confirmation_source":"Google Street View","city":"Seattle","year_built":"1900","state":"WA","neighborhood":"Duwamish/SODO","building_use":"Commercial","preliminary_risk_category":"High Risk","retrofit_level":"Permitted Retrofit","address":"171 S Jackson St","estimated_number_of_occupants":"101+"},"geometry":{"type":"Point","coordinates":[-122.33197300000002,47.599201]}},{"type":"Feature","properties":{"zip_code":"98101","no_stories":"4","confirmation_source":"Field Visit","city":"Seattle","year_built":"1925","state":"WA","neighborhood":"First Hill","building_use":"Residential","preliminary_risk_category":"Medium Risk","retrofit_level":"No visible retrofit","address":"1400 Boren Ave","estimated_number_of_occupants":"101+"},"geometry":{"type":"Point","coordinates":[-122.32829000000001,47.612755]}},{"type":"Feature","properties":{"zip_code":"98101","no_stories":"2","confirmation_source":"Sandborn Insurance Maps","city":"Seattle","year_built":"1928","state":"WA","neighborhood":"Cascade/Eastlake","building_use":"Commercial/Office","preliminary_risk_category":"Medium Risk","retrofit_level":"No visible retrofit","address":"1925 5th Ave","estimated_number_of_occupants":"11-100"},"geometry":{"type":"Point","coordinates":[-122.33846500000001,47.613275]}},{"type":"Feature","properties":{"zip_code":"98118","no_stories":"1","confirmation_source":"Google Street View","city":"Seattle","year_built":"1919","state":"WA","neighborhood":"Columbia City","building_use":"Commercial","preliminary_risk_category":"Medium Risk","retrofit_level":"No visible retrofit","address":"5718 Rainier Ave S","estimated_number_of_occupants":"11-100"},"geometry":{"type":"Point","coordinates":[-122.277394,47.550657]}},{"type":"Feature","properties":{"zip_code":"98109","no_stories":"1","confirmation_source":"Permit Drawing Review","city":"Seattle","year_built":"1925","state":"WA","neighborhood":"Queen Anne","building_use":"Public Assembly","preliminary_risk_category":"High Risk","retrofit_level":"No visible retrofit","address":"601 Queen Anne Ave N","estimated_number_of_occupants":"101+"},"geometry":{"type":"Point","coordinates":[-122.35671400000001,47.624858]}},{"type":"Feature","properties":{"zip_code":"98122","no_stories":"3","confirmation_source":"Google Street View","city":"Seattle","year_built":"1930","state":"WA","neighborhood":"Capitol Hill","building_use":"Residential","preliminary_risk_category":"Medium Risk","retrofit_level":"No visible retrofit","address":"417 E Union St","estimated_number_of_occupants":"11-100"},"geometry":{"type":"Point","coordinates":[-122.325697,47.612991]}},{"type":"Feature","properties":{"zip_code":"98134","no_stories":"1","confirmation_source":"Field Visit","city":"Seattle","year_built":"1927","state":"WA","neighborhood":"Duwamish/SODO","building_use":"Public Assembly","preliminary_risk_category":"High Risk","retrofit_level":"Permitted Retrofit","address":"2901 1st Ave S","estimated_number_of_occupants":"101+"},"geometry":{"type":"Point","coordinates":[-122.334216,47.577428]}},{"type":"Feature","properties":{"zip_code":"98104","no_stories":"5","confirmation_source":"Google Street View","city":"Seattle","year_built":"1923","state":"WA","neighborhood":"First Hill","building_use":"Residential","preliminary_risk_category":"Medium Risk","retrofit_level":"No visible retrofit","address":"1018 9th Ave","estimated_number_of_occupants":"101+"},"geometry":{"type":"Point","coordinates":[-122.32780900000002,47.60891]}},{"type":"Feature","properties":{"zip_code":"98144","no_stories":"1","confirmation_source":"Permit Drawing Review","city":"Seattle","year_built":"1928","state":"WA","neighborhood":"North Beacon Hill/Jefferson Park","building_use":"Commercial","preliminary_risk_category":"Medium Risk","retrofit_level":"No visible retrofit","address":"2507 Beacon Ave S","estimated_number_of_occupants":"11-100"},"geometry":{"type":"Point","coordinates":[-122.313516,47.580681]}},{"type":"Feature","properties":{"zip_code":"98106","no_stories":"2","confirmation_source":"Google Street View","city":"Seattle","year_built":"1926","state":"WA","neighborhood":"Roxhill/Westwood","building_use":"Commercial/Residential","preliminary_risk_category":"Medium Risk","retrofit_level":"No visible retrofit","address":"9434 Delridge Way SW","estimated_number_of_occupants":"11-100"},"geometry":{"type":"Point","coordinates":[-122.35585800000001,47.518151]}},{"type":"Feature","properties":{"zip_code":"98121","no_stories":"2","confirmation_source":"Photos from Previous Surveys","city":"Seattle","year_built":"1900","state":"WA","neighborhood":"Belltown","building_use":"Commercial/Office","preliminary_risk_category":"Medium Risk","retrofit_level":"No visible retrofit","address":"2231 2nd Ave","estimated_number_of_occupants":"11-100"},"geometry":{"type":"Point","coordinates":[-122.345477,47.613914]}},{"type":"Feature","properties":{"zip_code":"98117","no_stories":"1","confirmation_source":"Google Street View","city":"Seattle","year_built":"1922","state":"WA","neighborhood":"Greenwood/Phinney Ridge","building_use":"Commercial","preliminary_risk_category":"Medium Risk","retrofit_level":"No visible retrofit","address":"517 NW 65th St","estimated_number_of_occupants":"1-10"},"geometry":{"type":"Point","coordinates":[-122.36360199999999,47.675989]}},{"type":"Feature","properties":{"zip_code":"98122","no_stories":"1","confirmation_source":"Field Visit","city":"Seattle","year_built":"1924","state":"WA","neighborhood":"Madrona/Leschi","building_use":"Commercial","preliminary_risk_category":"Medium Risk","retrofit_level":"No visible retrofit","address":"1408 34th Ave","estimated_number_of_occupants":"11-100"},"geometry":{"type":"Point","coordinates":[-122.28931500000002,47.613345]}},{"type":"Feature","properties":{"zip_code":"98122","no_stories":"2","confirmation_source":"Photos from Previous Surveys","city":"Seattle","year_built":"1913","state":"WA","neighborhood":"Capitol Hill","building_use":"Commercial","preliminary_risk_category":"Medium Risk","retrofit_level":"No visible retrofit","address":"1424 10th Ave","estimated_number_of_occupants":"11-100"},"geometry":{"type":"Point","coordinates":[-122.31943899999999,47.613607]}},{"type":"Feature","properties":{"zip_code":"98122","no_stories":"1","confirmation_source":"Field Visit","city":"Seattle","year_built":"1912","state":"WA","neighborhood":"Capitol Hill","building_use":"Public Assembly","preliminary_risk_category":"High Risk","retrofit_level":"Substantial Alteration","address":"1531 Melrose Ave","estimated_number_of_occupants":"101+"},"geometry":{"type":"Point","coordinates":[-122.327915,47.61474]}},{"type":"Feature","properties":{"zip_code":"98105","no_stories":"2","confirmation_source":"Photos from Previous Surveys","city":"Seattle","year_built":"1925","state":"WA","neighborhood":"Univ Dist","building_use":"Commercial","preliminary_risk_category":"Medium Risk","retrofit_level":"No visible retrofit","address":"4508 University Way NE","estimated_number_of_occupants":"11-100"},"geometry":{"type":"Point","coordinates":[-122.313127,47.661625]}},{"type":"Feature","properties":{"zip_code":"98115","no_stories":"1","confirmation_source":"Photos from Previous Surveys","city":"Seattle","year_built":"1926","state":"WA","neighborhood":"Ravenna/Bryant","building_use":"Commercial","preliminary_risk_category":"Medium Risk","retrofit_level":"No visible retrofit","address":"8014 15th Ave NE","estimated_number_of_occupants":"101+"},"geometry":{"type":"Point","coordinates":[-122.312188,47.687212]}},{"type":"Feature","properties":{"zip_code":"98101","no_stories":"1","confirmation_source":"Google Street View","city":"Seattle","year_built":"1926","state":"WA","neighborhood":"Cascade/Eastlake","building_use":"Commercial","preliminary_risk_category":"Medium Risk","retrofit_level":"Permitted Retrofit","address":"922 Virginia St","estimated_number_of_occupants":"11-100"},"geometry":{"type":"Point","coordinates":[-122.33505400000001,47.616921]}},{"type":"Feature","properties":{"zip_code":"98112","no_stories":"2","confirmation_source":"Google Street View","city":"Seattle","year_built":"1912","state":"WA","neighborhood":"Miller Park","building_use":"Residential","preliminary_risk_category":"Medium Risk","retrofit_level":"No visible retrofit","address":"1914 E Mercer St","estimated_number_of_occupants":"11-100"},"geometry":{"type":"Point","coordinates":[-122.30664500000002,47.624425]}},{"type":"Feature","properties":{"zip_code":"98105","no_stories":"2","confirmation_source":"Google Street View","city":"Seattle","year_built":"1927","state":"WA","neighborhood":"Univ Dist","building_use":"Commercial/Office","preliminary_risk_category":"Medium Risk","retrofit_level":"No visible retrofit","address":"4534 University Way NE","estimated_number_of_occupants":"101+"},"geometry":{"type":"Point","coordinates":[-122.31311299999999,47.662352]}},{"type":"Feature","properties":{"zip_code":"98107","no_stories":"2","confirmation_source":"Google Street View","city":"Seattle","year_built":"1905","state":"WA","neighborhood":"Ballard","building_use":"Commercial/Office","preliminary_risk_category":"Medium Risk","retrofit_level":"Substantial Alteration","address":"5101 Ballard Ave NW","estimated_number_of_occupants":"11-100"},"geometry":{"type":"Point","coordinates":[-122.380994,47.66454400000001]}},{"type":"Feature","properties":{"zip_code":"98104","no_stories":"3","confirmation_source":"Field Visit","city":"Seattle","year_built":"1916","state":"WA","neighborhood":"Pioneer Square/Chinatown International District","building_use":"Commercial/Residential","preliminary_risk_category":"Medium Risk","retrofit_level":"Visible retrofit","address":"400 Maynard Ave S","estimated_number_of_occupants":"101+"},"geometry":{"type":"Point","coordinates":[-122.325073,47.598978]}},{"type":"Feature","properties":{"zip_code":"98101","no_stories":"4","confirmation_source":"Permit Drawing Review","city":"Seattle","year_built":"1942","state":"WA","neighborhood":"Downtown","building_use":"Commercial/Residential","preliminary_risk_category":"Medium Risk","retrofit_level":"Substantial Alteration","address":"1513 1st Ave","estimated_number_of_occupants":"101+"},"geometry":{"type":"Point","coordinates":[-122.340481,47.60931]}},{"type":"Feature","properties":{"zip_code":"98121","no_stories":"4","confirmation_source":"Google Street View","city":"Seattle","year_built":"1900","state":"WA","neighborhood":"Belltown","building_use":"Commercial","preliminary_risk_category":"Medium Risk","retrofit_level":"Permitted Retrofit","address":"2401 1st Ave","estimated_number_of_occupants":"101+"},"geometry":{"type":"Point","coordinates":[-122.347858,47.614154]}},{"type":"Feature","properties":{"zip_code":"98122","no_stories":"2","confirmation_source":"Google Street View","city":"Seattle","year_built":"1929","state":"WA","neighborhood":"Capitol Hill","building_use":"Residential","preliminary_risk_category":"Medium Risk","retrofit_level":"No visible retrofit","address":"1815 15th Ave","estimated_number_of_occupants":"11-100"},"geometry":{"type":"Point","coordinates":[-122.312774,47.618166]}},{"type":"Feature","properties":{"zip_code":"98122","no_stories":"1","confirmation_source":"Field Visit","city":"Seattle","year_built":"1907","state":"WA","neighborhood":"Central Area/Squire Park","building_use":"Public Assembly","preliminary_risk_category":"Medium Risk","retrofit_level":"No visible retrofit","address":"2300 E Spruce St","estimated_number_of_occupants":"11-100"},"geometry":{"type":"Point","coordinates":[-122.30203600000002,47.603523]}},{"type":"Feature","properties":{"zip_code":"98104","no_stories":"2","confirmation_source":"Field Visit","city":"Seattle","year_built":"1915","state":"WA","neighborhood":"Pioneer Square/Chinatown International District","building_use":"Commercial","preliminary_risk_category":"Medium Risk","retrofit_level":"No visible retrofit","address":"667 S Jackson St","estimated_number_of_occupants":"11-100"},"geometry":{"type":"Point","coordinates":[-122.324125,47.599187]}},{"type":"Feature","properties":{"zip_code":"98104","no_stories":"4","confirmation_source":"Google Street View-Rosettes","city":"Seattle","year_built":"1901","state":"WA","neighborhood":"Downtown","building_use":"Commercial/Residential","preliminary_risk_category":"High Risk","retrofit_level":"Visible retrofit","address":"1007 1st Ave","estimated_number_of_occupants":"101+"},"geometry":{"type":"Point","coordinates":[-122.33646,47.604896]}},{"type":"Feature","properties":{"zip_code":"98103","no_stories":"1","confirmation_source":"Google Street View","city":"Seattle","year_built":"1929","state":"WA","neighborhood":"Green Lake","building_use":"Government","preliminary_risk_category":"Medium Risk","retrofit_level":"Permitted Retrofit","address":"8061 Densmore Ave N","estimated_number_of_occupants":"11-100"},"geometry":{"type":"Point","coordinates":[-122.33775000000001,47.688019]}},{"type":"Feature","properties":{"zip_code":"98104","no_stories":"5","confirmation_source":"Google Street View","city":"Seattle","year_built":"1904","state":"WA","neighborhood":"Duwamish/SODO","building_use":"Commercial","preliminary_risk_category":"High Risk","retrofit_level":"Permitted Retrofit","address":"111 S Jackson St","estimated_number_of_occupants":"101+"},"geometry":{"type":"Point","coordinates":[-122.33353700000002,47.59921000000001]}},{"type":"Feature","properties":{"zip_code":"98103","no_stories":"1","confirmation_source":"Field Visit","city":"Seattle","year_built":"1923","state":"WA","neighborhood":"Fremont","building_use":"Commercial","preliminary_risk_category":"Medium Risk","retrofit_level":"No visible retrofit","address":"4316 Fremont Ave N","estimated_number_of_occupants":"1-10"},"geometry":{"type":"Point","coordinates":[-122.350026,47.659897]}},{"type":"Feature","properties":{"zip_code":"98102","no_stories":"4","confirmation_source":"Google Street View","city":"Seattle","year_built":"1910","state":"WA","neighborhood":"Capitol Hill","building_use":"Residential","preliminary_risk_category":"Medium Risk","retrofit_level":"No visible retrofit","address":"417 13th Ave E","estimated_number_of_occupants":"11-100"},"geometry":{"type":"Point","coordinates":[-122.31570400000001,47.622531]}},{"type":"Feature","properties":{"zip_code":"98103","no_stories":"1","confirmation_source":"Photos from Previous Surveys","city":"Seattle","year_built":"1928","state":"WA","neighborhood":"Greenwood/Phinney Ridge","building_use":"Commercial","preliminary_risk_category":"Medium Risk","retrofit_level":"No visible retrofit","address":"7613 Greenwood Ave N","estimated_number_of_occupants":"1-10"},"geometry":{"type":"Point","coordinates":[-122.355301,47.68444]}},{"type":"Feature","properties":{"zip_code":"98101","no_stories":"5","confirmation_source":"Permit Drawing Review","city":"Seattle","year_built":"1928","state":"WA","neighborhood":"Capitol Hill","building_use":"Commercial/Residential","preliminary_risk_category":"Medium Risk","retrofit_level":"Permitted Retrofit","address":"1215 Seneca St","estimated_number_of_occupants":"101+"},"geometry":{"type":"Point","coordinates":[-122.324539,47.611554]}},{"type":"Feature","properties":{"zip_code":"98101","no_stories":"3","confirmation_source":"Permit Drawing Review","city":"Seattle","year_built":"1900","state":"WA","neighborhood":"First Hill","building_use":"Commercial/Office","preliminary_risk_category":"Medium Risk","retrofit_level":"No visible retrofit","address":"1520 5th Ave","estimated_number_of_occupants":"11-100"},"geometry":{"type":"Point","coordinates":[-122.33602100000002,47.61116700000001]}},{"type":"Feature","properties":{"zip_code":"98105","no_stories":"3","confirmation_source":"Field Visit","city":"Seattle","year_built":"1928","state":"WA","neighborhood":"Univ Dist","building_use":"Residential","preliminary_risk_category":"Medium Risk","retrofit_level":"No visible retrofit","address":"4235 Brooklyn Ave NE","estimated_number_of_occupants":"11-100"},"geometry":{"type":"Point","coordinates":[-122.314337,47.659398]}},{"type":"Feature","properties":{"zip_code":"98104","no_stories":"4","confirmation_source":"Field Visit","city":"Seattle","year_built":"1916","state":"WA","neighborhood":"Pioneer Square/Chinatown International District","building_use":"Commercial/Residential","preliminary_risk_category":"Medium Risk","retrofit_level":"Permitted Retrofit","address":"418 7th Ave S","estimated_number_of_occupants":"101+"},"geometry":{"type":"Point","coordinates":[-122.323755,47.59898900000001]}},{"type":"Feature","properties":{"zip_code":"98107","no_stories":"2","confirmation_source":"Field Visit","city":"Seattle","year_built":"1915","state":"WA","neighborhood":"Ballard","building_use":"Schools","preliminary_risk_category":"Critical Risk","retrofit_level":"Substantial Alteration","address":"5201 Ballard Ave NW","estimated_number_of_occupants":"101+"},"geometry":{"type":"Point","coordinates":[-122.38218000000002,47.665562]}},{"type":"Feature","properties":{"zip_code":"98105","no_stories":"2","confirmation_source":"Google Street View","city":"Seattle","year_built":"1920","state":"WA","neighborhood":"Univ Dist","building_use":"Public Assembly","preliminary_risk_category":"High Risk","retrofit_level":"No visible retrofit","address":"4740 17th Ave NE","estimated_number_of_occupants":"101+"},"geometry":{"type":"Point","coordinates":[-122.30950100000001,47.664679]}},{"type":"Feature","properties":{"zip_code":"98122","no_stories":"1","confirmation_source":"Google Street View","city":"Seattle","year_built":"1919","state":"WA","neighborhood":"Central Area/Squire Park","building_use":"Office","preliminary_risk_category":"Medium Risk","retrofit_level":"Substantial Alteration","address":"1658 20th Ave","estimated_number_of_occupants":"11-100"},"geometry":{"type":"Point","coordinates":[-122.30614300000002,47.616867]}},{"type":"Feature","properties":{"zip_code":"98122","no_stories":"4","confirmation_source":"Permit Drawing Review","city":"Seattle","year_built":"1906","state":"WA","neighborhood":"Central Area/Squire Park","building_use":"Residential","preliminary_risk_category":"Medium Risk","retrofit_level":"Substantial Alteration","address":"1841 16th Ave","estimated_number_of_occupants":"11-100"},"geometry":{"type":"Point","coordinates":[-122.311448,47.618139]}},{"type":"Feature","properties":{"zip_code":"98107","no_stories":"2","confirmation_source":"Field Visit","city":"Seattle","year_built":"1900","state":"WA","neighborhood":"Ballard","building_use":"Commercial/Residential","preliminary_risk_category":"Medium Risk","retrofit_level":"No visible retrofit","address":"5000 20th Ave NW","estimated_number_of_occupants":"11-100"},"geometry":{"type":"Point","coordinates":[-122.38215400000001,47.665916]}},{"type":"Feature","properties":{"zip_code":"98117","no_stories":"1","confirmation_source":"Google Street View","city":"Seattle","year_built":"1950","state":"WA","neighborhood":"Whittier Heights","building_use":"Commercial","preliminary_risk_category":"Medium Risk","retrofit_level":"No visible retrofit","address":"6757 8th Ave NW","estimated_number_of_occupants":"11-100"},"geometry":{"type":"Point","coordinates":[-122.36611799999999,47.679337]}},{"type":"Feature","properties":{"zip_code":"98134","no_stories":"2","confirmation_source":"Field Visit","city":"Seattle","year_built":"1890","state":"WA","neighborhood":"Duwamish/SODO","building_use":"Commercial","preliminary_risk_category":"Medium Risk","retrofit_level":"No visible retrofit","address":"3100 Airport Way S","estimated_number_of_occupants":"11-100"},"geometry":{"type":"Point","coordinates":[-122.321437,47.575484]}},{"type":"Feature","properties":{"zip_code":"98134","no_stories":"1","confirmation_source":"Google Street View","city":"Seattle","year_built":"1931","state":"WA","neighborhood":"Duwamish/SODO","building_use":"Commercial","preliminary_risk_category":"Medium Risk","retrofit_level":"No visible retrofit","address":"1563 6th Ave S","estimated_number_of_occupants":"11-100"},"geometry":{"type":"Point","coordinates":[-122.32598700000001,47.588737]}},{"type":"Feature","properties":{"zip_code":"98121","no_stories":"4","confirmation_source":"Permit Drawing Review","city":"Seattle","year_built":"1910","state":"WA","neighborhood":"Belltown","building_use":"Residential","preliminary_risk_category":"Medium Risk","retrofit_level":"Permitted Retrofit","address":"3016 1st Ave","estimated_number_of_occupants":"11-100"},"geometry":{"type":"Point","coordinates":[-122.35455200000001,47.618114]}},{"type":"Feature","properties":{"zip_code":"98134","no_stories":"1","confirmation_source":"Photos from Previous Surveys","city":"Seattle","year_built":"1930","state":"WA","neighborhood":"Duwamish/SODO","building_use":"Commercial","preliminary_risk_category":"Medium Risk","retrofit_level":"Substantial Alteration","address":"1956 1st Ave S","estimated_number_of_occupants":"11-100"},"geometry":{"type":"Point","coordinates":[-122.334215,47.58439]}},{"type":"Feature","properties":{"zip_code":"98104","no_stories":"5","confirmation_source":"Field Visit","city":"Seattle","year_built":"1903","state":"WA","neighborhood":"Pioneer Square/Chinatown International District","building_use":"Commercial/Office","preliminary_risk_category":"High Risk","retrofit_level":"Substantial Alteration","address":"206 1st Ave S","estimated_number_of_occupants":"101+"},"geometry":{"type":"Point","coordinates":[-122.33412100000001,47.600588]}},{"type":"Feature","properties":{"zip_code":"98103","no_stories":"1","confirmation_source":"Google Street View-Rosettes","city":"Seattle","year_built":"1948","state":"WA","neighborhood":"Licton Springs","building_use":"Commercial","preliminary_risk_category":"Medium Risk","retrofit_level":"Visible retrofit","address":"9710 Aurora Ave N","estimated_number_of_occupants":"11-100"},"geometry":{"type":"Point","coordinates":[-122.34454500000001,47.699940000000005]}},{"type":"Feature","properties":{"zip_code":"98134","no_stories":"4","confirmation_source":"Google Street View","city":"Seattle","year_built":"1904","state":"WA","neighborhood":"Duwamish/SODO","building_use":"Commercial/Office","preliminary_risk_category":"High Risk","retrofit_level":"Permitted Retrofit","address":"55 S Atlantic St","estimated_number_of_occupants":"101+"},"geometry":{"type":"Point","coordinates":[-122.33723400000001,47.590645]}},{"type":"Feature","properties":{"zip_code":"98104","no_stories":"3","confirmation_source":"Google Street View","city":"Seattle","year_built":"1900","state":"WA","neighborhood":"Pioneer Square/Chinatown International District","building_use":"Commercial/Office","preliminary_risk_category":"Medium Risk","retrofit_level":"Permitted Retrofit","address":"312 1st Ave S","estimated_number_of_occupants":"11-100"},"geometry":{"type":"Point","coordinates":[-122.334137,47.599581]}},{"type":"Feature","properties":{"zip_code":"98144","no_stories":"1","confirmation_source":"Google Street View","city":"Seattle","year_built":"1920","state":"WA","neighborhood":"Judkins Park","building_use":"Schools","preliminary_risk_category":"Critical Risk","retrofit_level":"Visible retrofit","address":"1902 S Main St","estimated_number_of_occupants":"11-100"},"geometry":{"type":"Point","coordinates":[-122.30763000000002,47.59997]}},{"type":"Feature","properties":{"zip_code":"98112","no_stories":"2","confirmation_source":"Sandborn Insurance Maps","city":"Seattle","year_built":"1906","state":"WA","neighborhood":"Miller Park","building_use":"Office","preliminary_risk_category":"Medium Risk","retrofit_level":"No visible retrofit","address":"128 16th Ave E","estimated_number_of_occupants":"11-100"},"geometry":{"type":"Point","coordinates":[-122.31142,47.619431]}},{"type":"Feature","properties":{"zip_code":"98119","no_stories":"4","confirmation_source":"Google Street View","city":"Seattle","year_built":"1909","state":"WA","neighborhood":"Queen Anne","building_use":"Residential","preliminary_risk_category":"Medium Risk","retrofit_level":"Visible retrofit","address":"115 W Olympic Pl","estimated_number_of_occupants":"101+"},"geometry":{"type":"Point","coordinates":[-122.358928,47.626725]}},{"type":"Feature","properties":{"zip_code":"98109","no_stories":"1","confirmation_source":"Photos from Previous Surveys","city":"Seattle","year_built":"1933","state":"WA","neighborhood":"Queen Anne","building_use":"Commercial","preliminary_risk_category":"Medium Risk","retrofit_level":"No visible retrofit","address":"2128 Queen Anne Ave N","estimated_number_of_occupants":"11-100"},"geometry":{"type":"Point","coordinates":[-122.356935,47.638144]}},{"type":"Feature","properties":{"zip_code":"98105","no_stories":"1","confirmation_source":"Google Street View","city":"Seattle","year_built":"1921","state":"WA","neighborhood":"Univ Dist","building_use":"Commercial","preliminary_risk_category":"Medium Risk","retrofit_level":"No visible retrofit","address":"4247 University Way NE","estimated_number_of_occupants":"101+"},"geometry":{"type":"Point","coordinates":[-122.31317599999998,47.659606000000004]}},{"type":"Feature","properties":{"zip_code":"98121","no_stories":"2","confirmation_source":"Google Street View","city":"Seattle","year_built":"1911","state":"WA","neighborhood":"Cascade/Eastlake","building_use":"Office","preliminary_risk_category":"Medium Risk","retrofit_level":"No visible retrofit","address":"2600 3rd Ave","estimated_number_of_occupants":"11-100"},"geometry":{"type":"Point","coordinates":[-122.348246,47.616746]}},{"type":"Feature","properties":{"zip_code":"98134","no_stories":"1","confirmation_source":"Google Street View","city":"Seattle","year_built":"1938","state":"WA","neighborhood":"Duwamish/SODO","building_use":"Office","preliminary_risk_category":"Medium Risk","retrofit_level":"Substantial Alteration","address":"5050 1st Ave S","estimated_number_of_occupants":"11-100"},"geometry":{"type":"Point","coordinates":[-122.3342,47.556148]}},{"type":"Feature","properties":{"zip_code":"98102","no_stories":"3","confirmation_source":"Field Visit","city":"Seattle","year_built":"1909","state":"WA","neighborhood":"Capitol Hill","building_use":"Residential","preliminary_risk_category":"Medium Risk","retrofit_level":"No visible retrofit","address":"215 13th Ave E","estimated_number_of_occupants":"11-100"},"geometry":{"type":"Point","coordinates":[-122.31563400000002,47.620435]}},{"type":"Feature","properties":{"zip_code":"98109","no_stories":"2","confirmation_source":"Google Street View","city":"Seattle","year_built":"1928","state":"WA","neighborhood":"Queen Anne","building_use":"Public Assembly","preliminary_risk_category":"High Risk","retrofit_level":"No visible retrofit","address":"602 Valley St","estimated_number_of_occupants":"101+"},"geometry":{"type":"Point","coordinates":[-122.344956,47.626254]}},{"type":"Feature","properties":{"zip_code":"98103","no_stories":"1","confirmation_source":"Google Street View","city":"Seattle","year_built":"1928","state":"WA","neighborhood":"Greenwood/Phinney Ridge","building_use":"Commercial/Office","preliminary_risk_category":"Medium Risk","retrofit_level":"No visible retrofit","address":"7601 Greenwood Ave N","estimated_number_of_occupants":"11-100"},"geometry":{"type":"Point","coordinates":[-122.35530000000001,47.68424]}},{"type":"Feature","properties":{"zip_code":"98104","no_stories":"4","confirmation_source":null,"city":"Seattle","year_built":"1910","state":"WA","neighborhood":"Pioneer Square/Chinatown International District","building_use":"Commercial/Residential","preliminary_risk_category":"Medium Risk","retrofit_level":"No visible retrofit","address":"515 Maynard Ave S","estimated_number_of_occupants":"101+"},"geometry":{"type":"Point","coordinates":[-122.32508299999999,47.597851]}},{"type":"Feature","properties":{"zip_code":"98122","no_stories":"3","confirmation_source":"Google Street View","city":"Seattle","year_built":"1912","state":"WA","neighborhood":"Capitol Hill","building_use":"Commercial/Office","preliminary_risk_category":"Medium Risk","retrofit_level":"No visible retrofit","address":"501 E Pine St","estimated_number_of_occupants":"101+"},"geometry":{"type":"Point","coordinates":[-122.325192,47.615241000000005]}},{"type":"Feature","properties":{"zip_code":"98105","no_stories":"1","confirmation_source":"White Card Permit Records","city":"Seattle","year_built":"1934","state":"WA","neighborhood":"Wallingford","building_use":"Public Assembly","preliminary_risk_category":"Medium Risk","retrofit_level":"No visible retrofit","address":"712 NE 45th St","estimated_number_of_occupants":"11-100"},"geometry":{"type":"Point","coordinates":[-122.3199,47.661319]}},{"type":"Feature","properties":{"zip_code":"98118","no_stories":"2","confirmation_source":"Field Visit","city":"Seattle","year_built":"1920","state":"WA","neighborhood":"Columbia City","building_use":"Residential","preliminary_risk_category":"Medium Risk","retrofit_level":"No visible retrofit","address":"5609 Rainier Ave S","estimated_number_of_occupants":"1-10"},"geometry":{"type":"Point","coordinates":[-122.277946,47.551662]}},{"type":"Feature","properties":{"zip_code":"98104","no_stories":"1","confirmation_source":"Field Visit","city":"Seattle","year_built":"1910","state":"WA","neighborhood":"Pioneer Square/Chinatown International District","building_use":"Commercial","preliminary_risk_category":"Medium Risk","retrofit_level":"No visible retrofit","address":"701 S Jackson St","estimated_number_of_occupants":"1-10"},"geometry":{"type":"Point","coordinates":[-122.323358,47.599184]}},{"type":"Feature","properties":{"zip_code":"98195","no_stories":"3","confirmation_source":"Permit Drawing Review","city":"Seattle","year_built":"1926","state":"WA","neighborhood":"Univ Dist","building_use":"Schools","preliminary_risk_category":"Critical Risk","retrofit_level":"Permitted Retrofit","address":"4276 E Stevens Way NE","estimated_number_of_occupants":"101+"},"geometry":null},{"type":"Feature","properties":{"zip_code":"98122","no_stories":"3","confirmation_source":"Photos from Previous Surveys","city":"Seattle","year_built":"1911","state":"WA","neighborhood":"Capitol Hill","building_use":"Other Mixed Uses","preliminary_risk_category":"Medium Risk","retrofit_level":"No visible retrofit","address":"713 E Pike St","estimated_number_of_occupants":"11-100"},"geometry":{"type":"Point","coordinates":[-122.32276500000002,47.614061]}},{"type":"Feature","properties":{"zip_code":"98105","no_stories":"3","confirmation_source":"Permit Drawing Review","city":"Seattle","year_built":"0","state":"WA","neighborhood":"Ravenna/Bryant","building_use":"Public Assembly","preliminary_risk_category":"High Risk","retrofit_level":"No visible retrofit","address":"5801 Sand Point Way NE","estimated_number_of_occupants":"101+"},"geometry":{"type":"Point","coordinates":[-122.27021600000002,47.670713]}},{"type":"Feature","properties":{"zip_code":"98116","no_stories":"1","confirmation_source":"Permit Drawing Review","city":"Seattle","year_built":"1930","state":"WA","neighborhood":"West Seattle Junction/Genesee Hill","building_use":"Public Assembly","preliminary_risk_category":"High Risk","retrofit_level":"Permitted Retrofit","address":"4304 SW Dakota St","estimated_number_of_occupants":"101+"},"geometry":{"type":"Point","coordinates":[-122.387152,47.566583]}},{"type":"Feature","properties":{"zip_code":"98107","no_stories":"3","confirmation_source":"Permit Drawing Review","city":"Seattle","year_built":"1903","state":"WA","neighborhood":"Ballard","building_use":"Commercial","preliminary_risk_category":"Medium Risk","retrofit_level":"Permitted Retrofit","address":"5232 Ballard Ave NW","estimated_number_of_occupants":"101+"},"geometry":{"type":"Point","coordinates":[-122.38247500000001,47.665822]}},{"type":"Feature","properties":{"zip_code":"98115","no_stories":"2","confirmation_source":"Permit Drawing Review","city":"Seattle","year_built":"1928","state":"WA","neighborhood":"Northgate/Maple Leaf","building_use":"Vacant","preliminary_risk_category":"Medium Risk","retrofit_level":"No visible retrofit","address":"8511 15th Ave NE","estimated_number_of_occupants":null},"geometry":{"type":"Point","coordinates":[-122.312232,47.690789]}},{"type":"Feature","properties":{"zip_code":"98115","no_stories":"3","confirmation_source":"Permit Drawing Review","city":"Seattle","year_built":"1937","state":"WA","neighborhood":"Laurelhurst/Sand Point","building_use":"Schools","preliminary_risk_category":"Critical Risk","retrofit_level":"Permitted Retrofit","address":"6200 NE 74th St","estimated_number_of_occupants":"101+"},"geometry":{"type":"Point","coordinates":[-122.26243699999999,47.682142]}},{"type":"Feature","properties":{"zip_code":"98104","no_stories":"4","confirmation_source":"Field Visit","city":"Seattle","year_built":"1905","state":"WA","neighborhood":"Pioneer Square/Chinatown International District","building_use":"Commercial/Residential","preliminary_risk_category":"Medium Risk","retrofit_level":"Visible retrofit","address":"204 3rd Ave S","estimated_number_of_occupants":"101+"},"geometry":{"type":"Point","coordinates":[-122.330283,47.600704]}},{"type":"Feature","properties":{"zip_code":"98104","no_stories":"5","confirmation_source":"Google Street View","city":"Seattle","year_built":"1900","state":"WA","neighborhood":"Downtown","building_use":"Commercial/Office","preliminary_risk_category":"Medium Risk","retrofit_level":"Permitted Retrofit","address":"524 2nd Ave","estimated_number_of_occupants":"101+"},"geometry":{"type":"Point","coordinates":[-122.332143,47.601867]}},{"type":"Feature","properties":{"zip_code":"98107","no_stories":"3","confirmation_source":"Permit Drawing Review","city":"Seattle","year_built":"1922","state":"WA","neighborhood":"Ballard","building_use":"Schools","preliminary_risk_category":"Critical Risk","retrofit_level":"Permitted Retrofit","address":"5800 15th Ave NW","estimated_number_of_occupants":"101+"},"geometry":{"type":"Point","coordinates":[-122.376217,47.671269]}},{"type":"Feature","properties":{"zip_code":"98119","no_stories":"2","confirmation_source":"Google Street View","city":"Seattle","year_built":"1940","state":"WA","neighborhood":"Queen Anne","building_use":"Schools","preliminary_risk_category":"Critical Risk","retrofit_level":"Substantial Alteration","address":"3307 3rd Ave W","estimated_number_of_occupants":"101+"},"geometry":{"type":"Point","coordinates":[-122.360883,47.650056]}},{"type":"Feature","properties":{"zip_code":"98104","no_stories":"2","confirmation_source":"Google Street View","city":"Seattle","year_built":"1900","state":"WA","neighborhood":"Pioneer Square/Chinatown International District","building_use":"Commercial/Office","preliminary_risk_category":"Medium Risk","retrofit_level":"Permitted Retrofit","address":"118 S Washington St","estimated_number_of_occupants":"11-100"},"geometry":{"type":"Point","coordinates":[-122.333338,47.600892]}},{"type":"Feature","properties":{"zip_code":"98105","no_stories":"2","confirmation_source":"Google Street View","city":"Seattle","year_built":"1921","state":"WA","neighborhood":"Univ Dist","building_use":"Public Assembly","preliminary_risk_category":"High Risk","retrofit_level":"No visible retrofit","address":"4329 University Way NE","estimated_number_of_occupants":"101+"},"geometry":{"type":"Point","coordinates":[-122.313148,47.660699]}},{"type":"Feature","properties":{"zip_code":"98109","no_stories":"2","confirmation_source":"Google Street View","city":"Seattle","year_built":"1905","state":"WA","neighborhood":"Cascade/Eastlake","building_use":"Office","preliminary_risk_category":"Medium Risk","retrofit_level":"No visible retrofit","address":"112 5th Ave N","estimated_number_of_occupants":"11-100"},"geometry":{"type":"Point","coordinates":[-122.34761000000002,47.619073]}},{"type":"Feature","properties":{"zip_code":"98121","no_stories":"1","confirmation_source":"Google Street View","city":"Seattle","year_built":"1919","state":"WA","neighborhood":"Cascade/Eastlake","building_use":"Government","preliminary_risk_category":"Medium Risk","retrofit_level":"Substantial Alteration","address":"415 Bell St","estimated_number_of_occupants":"101+"},"geometry":{"type":"Point","coordinates":[-122.343327,47.615821]}},{"type":"Feature","properties":{"zip_code":"98121","no_stories":"5","confirmation_source":"Google Street View","city":"Seattle","year_built":"1915","state":"WA","neighborhood":"Cascade/Eastlake","building_use":"Residential","preliminary_risk_category":"Medium Risk","retrofit_level":"No visible retrofit","address":"2021 4th Ave","estimated_number_of_occupants":"11-100"},"geometry":{"type":"Point","coordinates":[-122.34078600000001,47.613481]}},{"type":"Feature","properties":{"zip_code":"98122","no_stories":"2","confirmation_source":"Field Visit","city":"Seattle","year_built":"1922","state":"WA","neighborhood":"First Hill","building_use":"Public Assembly","preliminary_risk_category":"High Risk","retrofit_level":"No visible retrofit","address":"160 Broadway","estimated_number_of_occupants":"101+"},"geometry":{"type":"Point","coordinates":[-122.32074400000002,47.603182]}},{"type":"Feature","properties":{"zip_code":"98104","no_stories":"3","confirmation_source":"Google Street View","city":"Seattle","year_built":"1903","state":"WA","neighborhood":"Downtown","building_use":"Commercial","preliminary_risk_category":"Medium Risk","retrofit_level":"No visible retrofit","address":"110 Cherry St","estimated_number_of_occupants":"11-100"},"geometry":{"type":"Point","coordinates":[-122.333951,47.602711]}},{"type":"Feature","properties":{"zip_code":"98107","no_stories":"2","confirmation_source":"Field Visit","city":"Seattle","year_built":"1900","state":"WA","neighborhood":"Ballard","building_use":"Commercial/Office","preliminary_risk_category":"Medium Risk","retrofit_level":"No visible retrofit","address":"5348 Ballard Ave NW","estimated_number_of_occupants":"101+"},"geometry":{"type":"Point","coordinates":[-122.384563,47.667494]}},{"type":"Feature","properties":{"zip_code":"98107","no_stories":"3","confirmation_source":"Field Visit","city":"Seattle","year_built":"1909","state":"WA","neighborhood":"Ballard","building_use":"Commercial/Residential","preliminary_risk_category":"Medium Risk","retrofit_level":"No visible retrofit","address":"1903 NW Market St","estimated_number_of_occupants":"101+"},"geometry":{"type":"Point","coordinates":[-122.381738,47.66865800000001]}},{"type":"Feature","properties":{"zip_code":"98115","no_stories":"2","confirmation_source":"Google Street View","city":"Seattle","year_built":"1921","state":"WA","neighborhood":"Green Lake","building_use":"Public Assembly","preliminary_risk_category":"High Risk","retrofit_level":"Permitted Retrofit","address":"7220 Woodlawn Ave NE","estimated_number_of_occupants":"101+"},"geometry":{"type":"Point","coordinates":[-122.325043,47.681015]}},{"type":"Feature","properties":{"zip_code":"98122","no_stories":"3","confirmation_source":"Field Visit","city":"Seattle","year_built":"1924","state":"WA","neighborhood":"Capitol Hill","building_use":"Public Assembly","preliminary_risk_category":"High Risk","retrofit_level":"No visible retrofit","address":"1510 E Olive Way","estimated_number_of_occupants":"101+"},"geometry":{"type":"Point","coordinates":[-122.325862,47.618237]}},{"type":"Feature","properties":{"zip_code":"98118","no_stories":"1","confirmation_source":"Google Street View","city":"Seattle","year_built":"1926","state":"WA","neighborhood":"Columbia City","building_use":"Commercial","preliminary_risk_category":"Medium Risk","retrofit_level":"No visible retrofit","address":"4243 Rainier Ave S","estimated_number_of_occupants":"11-100"},"geometry":{"type":"Point","coordinates":[-122.28848000000002,47.565098]}},{"type":"Feature","properties":{"zip_code":"98107","no_stories":"1","confirmation_source":"Field Visit","city":"Seattle","year_built":"1928","state":"WA","neighborhood":"Ballard","building_use":"Commercial","preliminary_risk_category":"Medium Risk","retrofit_level":"No visible retrofit","address":"2032 NW Market St","estimated_number_of_occupants":"101+"},"geometry":{"type":"Point","coordinates":[-122.38380100000002,47.668698]}},{"type":"Feature","properties":{"zip_code":"98105","no_stories":"2","confirmation_source":"Google Street View","city":"Seattle","year_built":"1927","state":"WA","neighborhood":"Univ Dist","building_use":"Public Assembly","preliminary_risk_category":"High Risk","retrofit_level":"No visible retrofit","address":"4759 15th Ave NE","estimated_number_of_occupants":"101+"},"geometry":{"type":"Point","coordinates":[-122.31197100000001,47.663443]}},{"type":"Feature","properties":{"zip_code":"98112","no_stories":"3","confirmation_source":"Google Street View","city":"Seattle","year_built":"1915","state":"WA","neighborhood":"Madison Park","building_use":"Schools","preliminary_risk_category":"Critical Risk","retrofit_level":"No visible retrofit","address":"408 Lake Washington Blvd E","estimated_number_of_occupants":"101+"},"geometry":{"type":"Point","coordinates":[-122.28479000000002,47.622496]}},{"type":"Feature","properties":{"zip_code":"98107","no_stories":"1","confirmation_source":"Field Visit","city":"Seattle","year_built":"1900","state":"WA","neighborhood":"Ballard","building_use":"Commercial","preliminary_risk_category":"Medium Risk","retrofit_level":"No visible retrofit","address":"5233 Ballard Ave NW","estimated_number_of_occupants":"11-100"},"geometry":{"type":"Point","coordinates":[-122.38299,47.666277]}},{"type":"Feature","properties":{"zip_code":"98104","no_stories":"1","confirmation_source":"Sandborn Insurance Maps","city":"Seattle","year_built":"1929","state":"WA","neighborhood":"First Hill","building_use":"Public Assembly","preliminary_risk_category":"High Risk","retrofit_level":"No visible retrofit","address":"615 8th Ave","estimated_number_of_occupants":"101+"},"geometry":{"type":"Point","coordinates":[-122.32631400000001,47.605575]}},{"type":"Feature","properties":{"zip_code":"98122","no_stories":"3","confirmation_source":"Photos from Previous Surveys","city":"Seattle","year_built":"1917","state":"WA","neighborhood":"Capitol Hill","building_use":"Commercial","preliminary_risk_category":"Medium Risk","retrofit_level":"No visible retrofit","address":"619 E Pine St","estimated_number_of_occupants":"101+"},"geometry":{"type":"Point","coordinates":[-122.32400500000001,47.615242]}},{"type":"Feature","properties":{"zip_code":"98112","no_stories":"1","confirmation_source":"Field Visit","city":"Seattle","year_built":"1919","state":"WA","neighborhood":"Madison Park","building_use":"Public Assembly","preliminary_risk_category":"Medium Risk","retrofit_level":"No visible retrofit","address":"4218 E Madison St","estimated_number_of_occupants":"11-100"},"geometry":{"type":"Point","coordinates":[-122.27759099999999,47.636082]}},{"type":"Feature","properties":{"zip_code":"98104","no_stories":"3","confirmation_source":"Field Visit","city":"Seattle","year_built":"1907","state":"WA","neighborhood":"Pioneer Square/Chinatown International District","building_use":"Commercial/Office","preliminary_risk_category":"Medium Risk","retrofit_level":"Permitted Retrofit","address":"76 S Main St","estimated_number_of_occupants":"11-100"},"geometry":{"type":"Point","coordinates":[-122.335355,47.600046]}},{"type":"Feature","properties":{"zip_code":"98122","no_stories":"1","confirmation_source":"Field Visit","city":"Seattle","year_built":"1910","state":"WA","neighborhood":"Central Area/Squire Park","building_use":"Emergency","preliminary_risk_category":"Critical Risk","retrofit_level":"No visible retrofit","address":"1700 E Jefferson St","estimated_number_of_occupants":"11-100"},"geometry":{"type":"Point","coordinates":[-122.309817,47.606174]}},{"type":"Feature","properties":{"zip_code":"98134","no_stories":"1","confirmation_source":"Field Visit","city":"Seattle","year_built":"1926","state":"WA","neighborhood":"Duwamish/SODO","building_use":"Commercial/Office","preliminary_risk_category":"Medium Risk","retrofit_level":"No visible retrofit","address":"2724 1st Ave S","estimated_number_of_occupants":"11-100"},"geometry":{"type":"Point","coordinates":[-122.33421999999999,47.578933000000006]}},{"type":"Feature","properties":{"zip_code":"98121","no_stories":"3","confirmation_source":"Google Street View","city":"Seattle","year_built":"1909","state":"WA","neighborhood":"Belltown","building_use":"Commercial/Residential","preliminary_risk_category":"Medium Risk","retrofit_level":"Visible retrofit","address":"2212 1st Ave","estimated_number_of_occupants":"101+"},"geometry":{"type":"Point","coordinates":[-122.345781,47.61293]}},{"type":"Feature","properties":{"zip_code":"98103","no_stories":"1","confirmation_source":"Sandborn Insurance Maps","city":"Seattle","year_built":"1911","state":"WA","neighborhood":"Fremont","building_use":"Government","preliminary_risk_category":"Medium Risk","retrofit_level":"Permitted Retrofit","address":"731 N 35th St","estimated_number_of_occupants":"11-100"},"geometry":{"type":"Point","coordinates":[-122.34835599999998,47.650284]}},{"type":"Feature","properties":{"zip_code":"98104","no_stories":"1","confirmation_source":"Field Visit","city":"Seattle","year_built":"1900","state":"WA","neighborhood":"Pioneer Square/Chinatown International District","building_use":"Commercial","preliminary_risk_category":"Medium Risk","retrofit_level":"Visible retrofit","address":"107 Occidental Ave S","estimated_number_of_occupants":"101+"},"geometry":{"type":"Point","coordinates":[-122.33292599999999,47.601346]}},{"type":"Feature","properties":{"zip_code":"98109","no_stories":"4","confirmation_source":"Google Street View","city":"Seattle","year_built":"1930","state":"WA","neighborhood":"Queen Anne","building_use":"Residential","preliminary_risk_category":"Medium Risk","retrofit_level":"No visible retrofit","address":"124 Warren Ave N","estimated_number_of_occupants":"11-100"},"geometry":{"type":"Point","coordinates":[-122.354151,47.619342]}},{"type":"Feature","properties":{"zip_code":"98144","no_stories":"1","confirmation_source":"Google Street View","city":"Seattle","year_built":"1947","state":"WA","neighborhood":"Judkins Park","building_use":"Public Assembly","preliminary_risk_category":"High Risk","retrofit_level":"No visible retrofit","address":"1427 S Main St","estimated_number_of_occupants":"101+"},"geometry":{"type":"Point","coordinates":[-122.31264999999999,47.600019]}},{"type":"Feature","properties":{"zip_code":"98102","no_stories":"1","confirmation_source":"Google Street View","city":"Seattle","year_built":"1930","state":"WA","neighborhood":"Montlake/Portage Bay","building_use":"Commercial","preliminary_risk_category":"Medium Risk","retrofit_level":"No visible retrofit","address":"2351 10th Ave E","estimated_number_of_occupants":"11-100"},"geometry":{"type":"Point","coordinates":[-122.32007,47.641148]}},{"type":"Feature","properties":{"zip_code":"98104","no_stories":"2","confirmation_source":"Google Street View","city":"Seattle","year_built":"1936","state":"WA","neighborhood":"Pioneer Square/Chinatown International District","building_use":"Office","preliminary_risk_category":"Medium Risk","retrofit_level":"Visible retrofit","address":"211 S Washington St","estimated_number_of_occupants":"11-100"},"geometry":{"type":"Point","coordinates":[-122.33076700000001,47.600913]}},{"type":"Feature","properties":{"zip_code":"98121","no_stories":"3","confirmation_source":"Google Street View","city":"Seattle","year_built":"1903","state":"WA","neighborhood":"Belltown","building_use":"Commercial/Residential","preliminary_risk_category":"Medium Risk","retrofit_level":"No visible retrofit","address":"2604 1st Ave","estimated_number_of_occupants":"101+"},"geometry":{"type":"Point","coordinates":[-122.34971500000002,47.615258]}},{"type":"Feature","properties":{"zip_code":"98109","no_stories":"4","confirmation_source":"Field Visit","city":"Seattle","year_built":"1908","state":"WA","neighborhood":"Cascade/Eastlake","building_use":"Commercial/Residential","preliminary_risk_category":"Medium Risk","retrofit_level":"Permitted Retrofit","address":"601 Eastlake Ave E","estimated_number_of_occupants":"101+"},"geometry":{"type":"Point","coordinates":[-122.32917900000001,47.624553]}},{"type":"Feature","properties":{"zip_code":"98109","no_stories":"2","confirmation_source":"Field Visit","city":"Seattle","year_built":"1921","state":"WA","neighborhood":"Queen Anne","building_use":"Commercial","preliminary_risk_category":"Medium Risk","retrofit_level":"No visible retrofit","address":"731 Westlake Ave N","estimated_number_of_occupants":"101+"},"geometry":{"type":"Point","coordinates":[-122.33910200000001,47.62639]}},{"type":"Feature","properties":{"zip_code":"98109","no_stories":"2","confirmation_source":"Google Street View","city":"Seattle","year_built":"1929","state":"WA","neighborhood":"Cascade/Eastlake","building_use":"Public Assembly","preliminary_risk_category":"High Risk","retrofit_level":"No visible retrofit","address":"330 5th Ave N","estimated_number_of_occupants":"101+"},"geometry":{"type":"Point","coordinates":[-122.347603,47.621586]}},{"type":"Feature","properties":{"zip_code":"98122","no_stories":"4","confirmation_source":"Google Street View","city":"Seattle","year_built":"1908","state":"WA","neighborhood":"Capitol Hill","building_use":"Commercial/Office","preliminary_risk_category":"Medium Risk","retrofit_level":"No visible retrofit","address":"915 E Pine St","estimated_number_of_occupants":"101+"},"geometry":{"type":"Point","coordinates":[-122.319851,47.615252]}},{"type":"Feature","properties":{"zip_code":"98105","no_stories":"4","confirmation_source":"Google Street View","city":"Seattle","year_built":"1908","state":"WA","neighborhood":"Univ Dist","building_use":"Commercial/Residential","preliminary_risk_category":"Medium Risk","retrofit_level":"No visible retrofit","address":"4000 University Way NE","estimated_number_of_occupants":"101+"},"geometry":{"type":"Point","coordinates":[-122.31328600000002,47.655491]}},{"type":"Feature","properties":{"zip_code":"98116","no_stories":"1","confirmation_source":"Field Visit","city":"Seattle","year_built":"1924","state":"WA","neighborhood":"West Seattle Junction/Genesee Hill","building_use":"Commercial","preliminary_risk_category":"Medium Risk","retrofit_level":"No visible retrofit","address":"4535 California Ave SW","estimated_number_of_occupants":"11-100"},"geometry":{"type":"Point","coordinates":[-122.386777,47.561834]}},{"type":"Feature","properties":{"zip_code":"98119","no_stories":"4","confirmation_source":"Google Street View","city":"Seattle","year_built":"1891","state":"WA","neighborhood":"Queen Anne","building_use":"Schools","preliminary_risk_category":"Critical Risk","retrofit_level":"Substantial Alteration","address":"3307 3rd Ave W","estimated_number_of_occupants":"101+"},"geometry":{"type":"Point","coordinates":[-122.360883,47.650056]}},{"type":"Feature","properties":{"zip_code":"98108","no_stories":"3","confirmation_source":"Google Street View","city":"Seattle","year_built":"1911","state":"WA","neighborhood":"Duwamish/SODO","building_use":"Commercial/Residential","preliminary_risk_category":"Medium Risk","retrofit_level":"No visible retrofit","address":"4003 Airport Way S","estimated_number_of_occupants":"11-100"},"geometry":{"type":"Point","coordinates":[-122.322678,47.567854]}},{"type":"Feature","properties":{"zip_code":"98101","no_stories":"2","confirmation_source":"Google Street View","city":"Seattle","year_built":"1916","state":"WA","neighborhood":"Downtown","building_use":"Public Assembly","preliminary_risk_category":"High Risk","retrofit_level":"Visible retrofit","address":"1426 1st Ave","estimated_number_of_occupants":"101+"},"geometry":{"type":"Point","coordinates":[-122.33988000000001,47.608639]}},{"type":"Feature","properties":{"zip_code":"98102","no_stories":"3","confirmation_source":"Google Street View","city":"Seattle","year_built":"1949","state":"WA","neighborhood":"Capitol Hill","building_use":"Residential","preliminary_risk_category":"Medium Risk","retrofit_level":"No visible retrofit","address":"303 Harvard Ave E","estimated_number_of_occupants":"11-100"},"geometry":{"type":"Point","coordinates":[-122.32209500000002,47.621086]}},{"type":"Feature","properties":{"zip_code":"98104","no_stories":"3","confirmation_source":"Field Visit","city":"Seattle","year_built":"1900","state":"WA","neighborhood":"Pioneer Square/Chinatown International District","building_use":"Commercial/Office","preliminary_risk_category":"Medium Risk","retrofit_level":"Substantial Alteration","address":"315 2nd Ave S","estimated_number_of_occupants":"101+"},"geometry":{"type":"Point","coordinates":[-122.331591,47.599537]}},{"type":"Feature","properties":{"zip_code":"98104","no_stories":"1","confirmation_source":"Google Street View","city":"Seattle","year_built":"1911","state":"WA","neighborhood":"Pioneer Square/Chinatown International District","building_use":"Commercial","preliminary_risk_category":"Medium Risk","retrofit_level":"No visible retrofit","address":"1041 S King St","estimated_number_of_occupants":"101+"},"geometry":{"type":"Point","coordinates":[-122.31778400000002,47.598334]}},{"type":"Feature","properties":{"zip_code":"98136","no_stories":"3","confirmation_source":"Permit Drawing Review","city":"Seattle","year_built":"1910","state":"WA","neighborhood":"Fauntleroy/Seaview","building_use":"Schools","preliminary_risk_category":"Critical Risk","retrofit_level":"Permitted Retrofit","address":"4320 SW Myrtle St","estimated_number_of_occupants":"101+"},"geometry":{"type":"Point","coordinates":[-122.388925,47.539857000000005]}},{"type":"Feature","properties":{"zip_code":"98115","no_stories":"3","confirmation_source":"Permit Drawing Review","city":"Seattle","year_built":"1927","state":"WA","neighborhood":"Green Lake","building_use":"Schools","preliminary_risk_category":"Critical Risk","retrofit_level":"Permitted Retrofit","address":"520 NE Ravenna Blvd","estimated_number_of_occupants":"101+"},"geometry":{"type":"Point","coordinates":[-122.32288600000001,47.676999]}},{"type":"Feature","properties":{"zip_code":"98104","no_stories":"3","confirmation_source":"Field Visit","city":"Seattle","year_built":"1900","state":"WA","neighborhood":"Pioneer Square/Chinatown International District","building_use":"Commercial/Office","preliminary_risk_category":"Medium Risk","retrofit_level":"No visible retrofit","address":"311 Occidental Ave S","estimated_number_of_occupants":"101+"},"geometry":{"type":"Point","coordinates":[-122.332904,47.599535]}},{"type":"Feature","properties":{"zip_code":"98105","no_stories":"3","confirmation_source":"Google Street View","city":"Seattle","year_built":"1922","state":"WA","neighborhood":"Univ Dist","building_use":"Residential","preliminary_risk_category":"Medium Risk","retrofit_level":"No visible retrofit","address":"4529 17th Ave NE","estimated_number_of_occupants":"11-100"},"geometry":{"type":"Point","coordinates":[-122.309672,47.662113]}},{"type":"Feature","properties":{"zip_code":"98122","no_stories":"2","confirmation_source":"Google Street View","city":"Seattle","year_built":"1912","state":"WA","neighborhood":"Capitol Hill","building_use":"Commercial/Office","preliminary_risk_category":"Medium Risk","retrofit_level":"Substantial Alteration","address":"814 E Pike St","estimated_number_of_occupants":"101+"},"geometry":{"type":"Point","coordinates":[-122.321242,47.614077]}},{"type":"Feature","properties":{"zip_code":"98107","no_stories":"2","confirmation_source":"Field Visit","city":"Seattle","year_built":"1904","state":"WA","neighborhood":"Ballard","building_use":"Commercial/Office","preliminary_risk_category":"Medium Risk","retrofit_level":"Substantial Alteration","address":"5405 Leary Ave NW","estimated_number_of_occupants":"101+"},"geometry":{"type":"Point","coordinates":[-122.382549,47.667024]}},{"type":"Feature","properties":{"zip_code":"98104","no_stories":"6","confirmation_source":"Google Street View","city":"Seattle","year_built":"1911","state":"WA","neighborhood":"Downtown","building_use":"Commercial/Residential","preliminary_risk_category":"Medium Risk","retrofit_level":"Permitted Retrofit","address":"619 3rd Ave","estimated_number_of_occupants":"101+"},"geometry":{"type":"Point","coordinates":[-122.33188,47.603252]}},{"type":"Feature","properties":{"zip_code":"98104","no_stories":"3","confirmation_source":"Google Street View","city":"Seattle","year_built":"1910","state":"WA","neighborhood":"Pioneer Square/Chinatown International District","building_use":"Commercial/Residential","preliminary_risk_category":"Medium Risk","retrofit_level":"Visible retrofit","address":"614 S Jackson St","estimated_number_of_occupants":"101+"},"geometry":{"type":"Point","coordinates":[-122.32543499999998,47.599197]}},{"type":"Feature","properties":{"zip_code":"98107","no_stories":"1","confirmation_source":"Field Visit","city":"Seattle","year_built":"1911","state":"WA","neighborhood":"Ballard","building_use":"Commercial","preliminary_risk_category":"Medium Risk","retrofit_level":"No visible retrofit","address":"2318 NW Market St","estimated_number_of_occupants":"101+"},"geometry":{"type":"Point","coordinates":[-122.38714700000001,47.668701000000006]}},{"type":"Feature","properties":{"zip_code":"98109","no_stories":"1","confirmation_source":"Google Street View","city":"Seattle","year_built":"1924","state":"WA","neighborhood":"Queen Anne","building_use":"Commercial","preliminary_risk_category":"Medium Risk","retrofit_level":"No visible retrofit","address":"1506 Queen Anne Ave N","estimated_number_of_occupants":"1-10"},"geometry":{"type":"Point","coordinates":[-122.35695400000002,47.632384]}},{"type":"Feature","properties":{"zip_code":"98121","no_stories":"3","confirmation_source":"Photos from Previous Surveys","city":"Seattle","year_built":"1908","state":"WA","neighborhood":"Belltown","building_use":"Commercial/Office","preliminary_risk_category":"Medium Risk","retrofit_level":"Permitted Retrofit","address":"2018 1st Ave","estimated_number_of_occupants":"11-100"},"geometry":{"type":"Point","coordinates":[-122.343373,47.611495]}},{"type":"Feature","properties":{"zip_code":"98104","no_stories":"1","confirmation_source":"Permit Drawing Review","city":"Seattle","year_built":"1904","state":"WA","neighborhood":"First Hill","building_use":"Public Assembly","preliminary_risk_category":"High Risk","retrofit_level":"Permitted Retrofit","address":"808 9th Ave","estimated_number_of_occupants":"101+"},"geometry":{"type":"Point","coordinates":[-122.326082,47.607057]}},{"type":"Feature","properties":{"zip_code":"98108","no_stories":"2","confirmation_source":"Google Street View","city":"Seattle","year_built":"1905","state":"WA","neighborhood":"South Park","building_use":"Commercial/Residential","preliminary_risk_category":"Medium Risk","retrofit_level":"No visible retrofit","address":"8601 8th Ave S","estimated_number_of_occupants":"1-10"},"geometry":{"type":"Point","coordinates":[-122.32292400000001,47.52625100000001]}},{"type":"Feature","properties":{"zip_code":"98122","no_stories":"1","confirmation_source":"Permit Drawing Review","city":"Seattle","year_built":"1927","state":"WA","neighborhood":"Capitol Hill","building_use":"Public Assembly","preliminary_risk_category":"High Risk","retrofit_level":"No visible retrofit","address":"1213 E Pine St","estimated_number_of_occupants":"101+"},"geometry":{"type":"Point","coordinates":[-122.31594100000001,47.615265]}},{"type":"Feature","properties":{"zip_code":"98102","no_stories":"3","confirmation_source":"Google Street View","city":"Seattle","year_built":"1919","state":"WA","neighborhood":"North Capitol Hill","building_use":"Schools","preliminary_risk_category":"Critical Risk","retrofit_level":"Permitted Retrofit","address":"1058 E Mercer St","estimated_number_of_occupants":"101+"},"geometry":{"type":"Point","coordinates":[-122.318305,47.62427]}},{"type":"Feature","properties":{"zip_code":"98104","no_stories":"3","confirmation_source":"Google Street View","city":"Seattle","year_built":"1900","state":"WA","neighborhood":"Pioneer Square/Chinatown International District","building_use":"Commercial/Office","preliminary_risk_category":"Medium Risk","retrofit_level":"No visible retrofit","address":"81 S Washington St","estimated_number_of_occupants":"101+"},"geometry":{"type":"Point","coordinates":[-122.335023,47.600875]}},{"type":"Feature","properties":{"zip_code":"98104","no_stories":"4","confirmation_source":"Photos from Previous Surveys","city":"Seattle","year_built":"1900","state":"WA","neighborhood":"Downtown","building_use":"Commercial/Residential","preliminary_risk_category":"Medium Risk","retrofit_level":"No visible retrofit","address":"521 3rd Ave","estimated_number_of_occupants":"101+"},"geometry":{"type":"Point","coordinates":[-122.33103,47.602307]}},{"type":"Feature","properties":{"zip_code":"98116","no_stories":"3","confirmation_source":"Field Visit","city":"Seattle","year_built":"1930","state":"WA","neighborhood":"West Seattle Junction/Genesee Hill","building_use":"Other Mixed Uses","preliminary_risk_category":"Medium Risk","retrofit_level":"No visible retrofit","address":"2701 California Ave SW","estimated_number_of_occupants":"11-100"},"geometry":{"type":"Point","coordinates":[-122.386628,47.579153000000005]}},{"type":"Feature","properties":{"zip_code":"98121","no_stories":"4","confirmation_source":"Permit Drawing Review","city":"Seattle","year_built":"1925","state":"WA","neighborhood":"Cascade/Eastlake","building_use":"Commercial/Office","preliminary_risk_category":"Medium Risk","retrofit_level":"Substantial Alteration","address":"2121 Westlake Ave","estimated_number_of_occupants":"101+"},"geometry":{"type":"Point","coordinates":[-122.338293,47.61740700000001]}},{"type":"Feature","properties":{"zip_code":"98102","no_stories":"4","confirmation_source":"Sandborn Insurance Maps","city":"Seattle","year_built":"1917","state":"WA","neighborhood":"Capitol Hill","building_use":"Residential","preliminary_risk_category":"Medium Risk","retrofit_level":"No visible retrofit","address":"214 Summit Ave E","estimated_number_of_occupants":"11-100"},"geometry":{"type":"Point","coordinates":[-122.325322,47.62017]}},{"type":"Feature","properties":{"zip_code":"98122","no_stories":"2","confirmation_source":"Google Street View","city":"Seattle","year_built":"1918","state":"WA","neighborhood":"Capitol Hill","building_use":"Commercial/Office","preliminary_risk_category":"Medium Risk","retrofit_level":"No visible retrofit","address":"1520 Bellevue Ave","estimated_number_of_occupants":"11-100"},"geometry":{"type":"Point","coordinates":[-122.326835,47.614795]}},{"type":"Feature","properties":{"zip_code":"98109","no_stories":"1","confirmation_source":"Google Street View","city":"Seattle","year_built":"1931","state":"WA","neighborhood":"Cascade/Eastlake","building_use":"Office","preliminary_risk_category":"Medium Risk","retrofit_level":"No visible retrofit","address":"133 Dexter Ave N","estimated_number_of_occupants":"11-100"},"geometry":{"type":"Point","coordinates":[-122.342406,47.619545]}},{"type":"Feature","properties":{"zip_code":"98101","no_stories":"3","confirmation_source":"Google Street View","city":"Seattle","year_built":"1910","state":"WA","neighborhood":"Downtown","building_use":"Commercial/Residential","preliminary_risk_category":"Medium Risk","retrofit_level":"Substantial Alteration","address":"1534 Pike Pl","estimated_number_of_occupants":"11-100"},"geometry":{"type":"Point","coordinates":[-122.34159100000001,47.609298]}},{"type":"Feature","properties":{"zip_code":"98107","no_stories":"2","confirmation_source":"Field Visit","city":"Seattle","year_built":"1928","state":"WA","neighborhood":"Ballard","building_use":"Commercial","preliminary_risk_category":"Medium Risk","retrofit_level":"No visible retrofit","address":"2228 NW Market St","estimated_number_of_occupants":"11-100"},"geometry":{"type":"Point","coordinates":[-122.386113,47.668704000000005]}},{"type":"Feature","properties":{"zip_code":"98101","no_stories":"1","confirmation_source":"Google Street View","city":"Seattle","year_built":"1917","state":"WA","neighborhood":"Cascade/Eastlake","building_use":"Commercial","preliminary_risk_category":"Medium Risk","retrofit_level":"No visible retrofit","address":"1932 9th Ave","estimated_number_of_occupants":"11-100"},"geometry":{"type":"Point","coordinates":[-122.335555,47.616262]}},{"type":"Feature","properties":{"zip_code":"98121","no_stories":"6","confirmation_source":"Google Street View","city":"Seattle","year_built":"1914","state":"WA","neighborhood":"Belltown","building_use":"Commercial/Residential","preliminary_risk_category":"Medium Risk","retrofit_level":"Permitted Retrofit","address":"81 Vine St","estimated_number_of_occupants":"101+"},"geometry":{"type":"Point","coordinates":[-122.350258,47.614774]}},{"type":"Feature","properties":{"zip_code":"98103","no_stories":"1","confirmation_source":"Google Street View","city":"Seattle","year_built":"1912","state":"WA","neighborhood":"Wallingford","building_use":"Commercial","preliminary_risk_category":"Medium Risk","retrofit_level":"No visible retrofit","address":"4135 Stone Way N","estimated_number_of_occupants":"11-100"},"geometry":{"type":"Point","coordinates":[-122.34232699999998,47.657744]}},{"type":"Feature","properties":{"zip_code":"98102","no_stories":"1","confirmation_source":"Google Street View","city":"Seattle","year_built":"1924","state":"WA","neighborhood":"Capitol Hill","building_use":"Commercial","preliminary_risk_category":"Medium Risk","retrofit_level":"No visible retrofit","address":"1550 E Olive Way","estimated_number_of_occupants":"101+"},"geometry":{"type":"Point","coordinates":[-122.32556,47.618602]}},{"type":"Feature","properties":{"zip_code":"98107","no_stories":"1","confirmation_source":"Field Visit","city":"Seattle","year_built":"1900","state":"WA","neighborhood":"Ballard","building_use":"Commercial","preliminary_risk_category":"Medium Risk","retrofit_level":"Visible retrofit","address":"5130 Ballard Ave NW","estimated_number_of_occupants":"101+"},"geometry":{"type":"Point","coordinates":[-122.38185600000001,47.66527]}},{"type":"Feature","properties":{"zip_code":"98122","no_stories":"4","confirmation_source":"Photos from Previous Surveys","city":"Seattle","year_built":"1907","state":"WA","neighborhood":"Capitol Hill","building_use":"Residential","preliminary_risk_category":"Medium Risk","retrofit_level":"No visible retrofit","address":"1421 15th Ave","estimated_number_of_occupants":"11-100"},"geometry":{"type":"Point","coordinates":[-122.312786,47.613618]}},{"type":"Feature","properties":{"zip_code":"98134","no_stories":"1","confirmation_source":"Field Visit","city":"Seattle","year_built":"1926","state":"WA","neighborhood":"Duwamish/SODO","building_use":"Commercial","preliminary_risk_category":"Medium Risk","retrofit_level":"No visible retrofit","address":"85 S Lander St","estimated_number_of_occupants":"11-100"},"geometry":{"type":"Point","coordinates":[-122.33469099999999,47.579804]}},{"type":"Feature","properties":{"zip_code":"98109","no_stories":"2","confirmation_source":"Google Street View","city":"Seattle","year_built":"1926","state":"WA","neighborhood":"Queen Anne","building_use":"Public Assembly","preliminary_risk_category":"High Risk","retrofit_level":"No visible retrofit","address":"509 Queen Anne Ave N","estimated_number_of_occupants":"101+"},"geometry":{"type":"Point","coordinates":[-122.35672000000001,47.623533]}},{"type":"Feature","properties":{"zip_code":"98134","no_stories":"2","confirmation_source":"Google Street View","city":"Seattle","year_built":"1928","state":"WA","neighborhood":"Duwamish/SODO","building_use":"Commercial","preliminary_risk_category":"Medium Risk","retrofit_level":"Permitted Retrofit","address":"1003 6th Ave S","estimated_number_of_occupants":"11-100"},"geometry":{"type":"Point","coordinates":[-122.325986,47.594426]}},{"type":"Feature","properties":{"zip_code":"98102","no_stories":"4","confirmation_source":"Google Street View","city":"Seattle","year_built":"1929","state":"WA","neighborhood":"Capitol Hill","building_use":"Residential","preliminary_risk_category":"Medium Risk","retrofit_level":"No visible retrofit","address":"325 Summit Ave E","estimated_number_of_occupants":"11-100"},"geometry":{"type":"Point","coordinates":[-122.32533200000002,47.621656]}},{"type":"Feature","properties":{"zip_code":"98144","no_stories":"3","confirmation_source":"Permit Drawing Review","city":"Seattle","year_built":"1900","state":"WA","neighborhood":"Mt. Baker/North Rainier","building_use":"Commercial/Residential","preliminary_risk_category":"Medium Risk","retrofit_level":"Substantial Alteration","address":"2300 S Massachusetts St","estimated_number_of_occupants":"101+"},"geometry":{"type":"Point","coordinates":[-122.301888,47.588359]}},{"type":"Feature","properties":{"zip_code":"98104","no_stories":"6","confirmation_source":"Field Visit","city":"Seattle","year_built":"1900","state":"WA","neighborhood":"Pioneer Square/Chinatown International District","building_use":"Commercial/Office","preliminary_risk_category":"Medium Risk","retrofit_level":"No visible retrofit","address":"102 Occidental Ave S","estimated_number_of_occupants":"101+"},"geometry":{"type":"Point","coordinates":[-122.332863,47.601469]}},{"type":"Feature","properties":{"zip_code":"98122","no_stories":"3","confirmation_source":"Field Visit","city":"Seattle","year_built":"1924","state":"WA","neighborhood":"Capitol Hill","building_use":"Residential","preliminary_risk_category":"Medium Risk","retrofit_level":"No visible retrofit","address":"516 E Union St","estimated_number_of_occupants":"11-100"},"geometry":{"type":"Point","coordinates":[-122.32477900000002,47.612979]}},{"type":"Feature","properties":{"zip_code":"98122","no_stories":"2","confirmation_source":"Google Street View","city":"Seattle","year_built":"1923","state":"WA","neighborhood":"First Hill","building_use":"Commercial/Residential","preliminary_risk_category":"Medium Risk","retrofit_level":"No visible retrofit","address":"452 12th Ave","estimated_number_of_occupants":"11-100"},"geometry":{"type":"Point","coordinates":[-122.31679100000001,47.605726]}},{"type":"Feature","properties":{"zip_code":"98104","no_stories":"6","confirmation_source":"Google Street View-Rosettes","city":"Seattle","year_built":"1901","state":"WA","neighborhood":"Downtown","building_use":"Commercial/Residential","preliminary_risk_category":"High Risk","retrofit_level":"Visible retrofit","address":"1023 1st Ave","estimated_number_of_occupants":"101+"},"geometry":{"type":"Point","coordinates":[-122.336401,47.604827]}},{"type":"Feature","properties":{"zip_code":"98105","no_stories":"2","confirmation_source":"Google Street View","city":"Seattle","year_built":"1914","state":"WA","neighborhood":"Univ Dist","building_use":"Commercial","preliminary_risk_category":"Medium Risk","retrofit_level":"No visible retrofit","address":"4216 University Way NE","estimated_number_of_occupants":"101+"},"geometry":{"type":"Point","coordinates":[-122.31319600000002,47.65877900000001]}},{"type":"Feature","properties":{"zip_code":"98103","no_stories":"3","confirmation_source":"Permit Drawing Review","city":"Seattle","year_built":"1925","state":"WA","neighborhood":"Wallingford","building_use":"Commercial/Residential","preliminary_risk_category":"Medium Risk","retrofit_level":"Permitted Retrofit","address":"1701 N 45th St","estimated_number_of_occupants":"11-100"},"geometry":{"type":"Point","coordinates":[-122.33701800000001,47.661379]}},{"type":"Feature","properties":{"zip_code":"98121","no_stories":"1","confirmation_source":"Google Street View","city":"Seattle","year_built":"1929","state":"WA","neighborhood":"Cascade/Eastlake","building_use":"Commercial","preliminary_risk_category":"Medium Risk","retrofit_level":"Permitted Retrofit","address":"2022 Boren Ave","estimated_number_of_occupants":"101+"},"geometry":{"type":"Point","coordinates":[-122.33490799999998,47.618221]}},{"type":"Feature","properties":{"zip_code":"98122","no_stories":"2","confirmation_source":"Field Visit","city":"Seattle","year_built":"1908","state":"WA","neighborhood":"Central Area/Squire Park","building_use":"Commercial/Residential","preliminary_risk_category":"Medium Risk","retrofit_level":"No visible retrofit","address":"2002 E Union St","estimated_number_of_occupants":"11-100"},"geometry":{"type":"Point","coordinates":[-122.305965,47.612915]}},{"type":"Feature","properties":{"zip_code":"98108","no_stories":"2","confirmation_source":"Photos from Previous Surveys","city":"Seattle","year_built":"1906","state":"WA","neighborhood":"Georgetown","building_use":"Commercial/Residential","preliminary_risk_category":"Medium Risk","retrofit_level":"No visible retrofit","address":"5605 Corson Ave S","estimated_number_of_occupants":"11-100"},"geometry":{"type":"Point","coordinates":[-122.319993,47.552036]}},{"type":"Feature","properties":{"zip_code":"98122","no_stories":"2","confirmation_source":"Field Visit","city":"Seattle","year_built":"1907","state":"WA","neighborhood":"Capitol Hill","building_use":"Commercial","preliminary_risk_category":"Medium Risk","retrofit_level":"No visible retrofit","address":"1414 Broadway","estimated_number_of_occupants":"11-100"},"geometry":{"type":"Point","coordinates":[-122.32078100000001,47.6134]}},{"type":"Feature","properties":{"zip_code":"98115","no_stories":"1","confirmation_source":"Google Street View","city":"Seattle","year_built":"1929","state":"WA","neighborhood":"Green Lake","building_use":"Commercial","preliminary_risk_category":"Medium Risk","retrofit_level":"No visible retrofit","address":"6403 Roosevelt Way NE","estimated_number_of_occupants":"11-100"},"geometry":{"type":"Point","coordinates":[-122.31736600000002,47.674993]}},{"type":"Feature","properties":{"zip_code":"98122","no_stories":"1","confirmation_source":"Photos from Previous Surveys","city":"Seattle","year_built":"1925","state":"WA","neighborhood":"Capitol Hill","building_use":"Commercial","preliminary_risk_category":"Medium Risk","retrofit_level":"No visible retrofit","address":"1351 E Olive Way","estimated_number_of_occupants":"11-100"},"geometry":{"type":"Point","coordinates":[-122.327673,47.616751]}},{"type":"Feature","properties":{"zip_code":"98104","no_stories":"4","confirmation_source":"Google Street View","city":"Seattle","year_built":"1904","state":"WA","neighborhood":"Duwamish/SODO","building_use":"Industrial","preliminary_risk_category":"High Risk","retrofit_level":"Permitted Retrofit","address":"548 1st Ave S","estimated_number_of_occupants":"11-100"},"geometry":{"type":"Point","coordinates":[-122.334149,47.596716]}},{"type":"Feature","properties":{"zip_code":"98117","no_stories":"1","confirmation_source":"Field Visit","city":"Seattle","year_built":"1935","state":"WA","neighborhood":"Whittier Heights","building_use":"Commercial","preliminary_risk_category":"Medium Risk","retrofit_level":"No visible retrofit","address":"7013 15th Ave NW","estimated_number_of_occupants":"11-100"},"geometry":{"type":"Point","coordinates":[-122.37678500000001,47.679758]}},{"type":"Feature","properties":{"zip_code":"98104","no_stories":"4","confirmation_source":"Field Visit","city":"Seattle","year_built":"1909","state":"WA","neighborhood":"Pioneer Square/Chinatown International District","building_use":"Commercial/Residential","preliminary_risk_category":"Medium Risk","retrofit_level":"Permitted Retrofit","address":"657 S King St","estimated_number_of_occupants":"101+"},"geometry":{"type":"Point","coordinates":[-122.32468199999998,47.598368]}},{"type":"Feature","properties":{"zip_code":"98121","no_stories":"5","confirmation_source":"Google Street View","city":"Seattle","year_built":"1909","state":"WA","neighborhood":"Belltown","building_use":"Commercial","preliminary_risk_category":"Medium Risk","retrofit_level":"Substantial Alteration","address":"2200 Western Ave","estimated_number_of_occupants":"101+"},"geometry":{"type":"Point","coordinates":[-122.34636100000002,47.612116]}},{"type":"Feature","properties":{"zip_code":"98122","no_stories":"1","confirmation_source":"Photos from Previous Surveys","city":"Seattle","year_built":"1917","state":"WA","neighborhood":"Capitol Hill","building_use":"Commercial/Office","preliminary_risk_category":"Medium Risk","retrofit_level":"Substantial Alteration","address":"1621 12th Ave","estimated_number_of_occupants":"101+"},"geometry":{"type":"Point","coordinates":[-122.31686900000001,47.615902]}},{"type":"Feature","properties":{"zip_code":"98121","no_stories":"2","confirmation_source":"Photos from Previous Surveys","city":"Seattle","year_built":"0","state":"WA","neighborhood":"Belltown","building_use":"Commercial","preliminary_risk_category":"Medium Risk","retrofit_level":"No visible retrofit","address":"2407 1st Ave","estimated_number_of_occupants":"11-100"},"geometry":{"type":"Point","coordinates":[-122.348294,47.61441]}},{"type":"Feature","properties":{"zip_code":"98134","no_stories":"1","confirmation_source":"Field Visit","city":"Seattle","year_built":"1937","state":"WA","neighborhood":"Duwamish/SODO","building_use":"Commercial","preliminary_risk_category":"Medium Risk","retrofit_level":"No visible retrofit","address":"2450 1st Ave S","estimated_number_of_occupants":"11-100"},"geometry":{"type":"Point","coordinates":[-122.33421900000002,47.580359]}},{"type":"Feature","properties":{"zip_code":"98119","no_stories":"4","confirmation_source":"Permit Drawing Review","city":"Seattle","year_built":"1895","state":"WA","neighborhood":"Queen Anne","building_use":"Residential","preliminary_risk_category":"Medium Risk","retrofit_level":"Permitted Retrofit","address":"1401 5th Ave W","estimated_number_of_occupants":"11-100"},"geometry":{"type":"Point","coordinates":[-122.363116,47.631823]}},{"type":"Feature","properties":{"zip_code":"98107","no_stories":"1","confirmation_source":"Field Visit","city":"Seattle","year_built":"1910","state":"WA","neighborhood":"Sunset Hill/Loyal Heights","building_use":"Industrial","preliminary_risk_category":"Medium Risk","retrofit_level":"No visible retrofit","address":"5300 26th Ave NW","estimated_number_of_occupants":"1-10"},"geometry":{"type":"Point","coordinates":[-122.390174,47.667938]}},{"type":"Feature","properties":{"zip_code":"98109","no_stories":"2","confirmation_source":"Field Visit","city":"Seattle","year_built":"1906","state":"WA","neighborhood":"Cascade/Eastlake","building_use":"Commercial","preliminary_risk_category":"Medium Risk","retrofit_level":"Substantial Alteration","address":"1265 Republican St","estimated_number_of_occupants":"101+"},"geometry":{"type":"Point","coordinates":[-122.33080200000002,47.623116]}},{"type":"Feature","properties":{"zip_code":"98104","no_stories":"5","confirmation_source":"Google Street View","city":"Seattle","year_built":"1929","state":"WA","neighborhood":"First Hill","building_use":"Residential","preliminary_risk_category":"High Risk","retrofit_level":"No visible retrofit","address":"821 9th Ave","estimated_number_of_occupants":"11-100"},"geometry":{"type":"Point","coordinates":[-122.32654800000002,47.607561]}},{"type":"Feature","properties":{"zip_code":"98104","no_stories":"3","confirmation_source":"Google Street View","city":"Seattle","year_built":"1900","state":"WA","neighborhood":"Pioneer Square/Chinatown International District","building_use":"Commercial/Residential","preliminary_risk_category":"Medium Risk","retrofit_level":"Substantial Alteration","address":"219 S Washington St","estimated_number_of_occupants":"11-100"},"geometry":{"type":"Point","coordinates":[-122.33058700000001,47.600915]}},{"type":"Feature","properties":{"zip_code":"98101","no_stories":"6","confirmation_source":"Google Street View","city":"Seattle","year_built":"1914","state":"WA","neighborhood":"Belltown","building_use":"Commercial/Residential","preliminary_risk_category":"Medium Risk","retrofit_level":"No visible retrofit","address":"1907 1st Ave","estimated_number_of_occupants":"101+"},"geometry":{"type":"Point","coordinates":[-122.34152,47.610389000000005]}},{"type":"Feature","properties":{"zip_code":"98121","no_stories":"2","confirmation_source":"Permit Drawing Review","city":"Seattle","year_built":"1914","state":"WA","neighborhood":"Cascade/Eastlake","building_use":"Office","preliminary_risk_category":"Medium Risk","retrofit_level":"Permitted Retrofit","address":"2118 3rd Ave","estimated_number_of_occupants":"11-100"},"geometry":{"type":"Point","coordinates":[-122.34293800000002,47.613604]}},{"type":"Feature","properties":{"zip_code":"98109","no_stories":"2","confirmation_source":"Sandborn Insurance Maps","city":"Seattle","year_built":"1922","state":"WA","neighborhood":"Queen Anne","building_use":"Commercial","preliminary_risk_category":"Medium Risk","retrofit_level":"No visible retrofit","address":"307 Nickerson St","estimated_number_of_occupants":"11-100"},"geometry":{"type":"Point","coordinates":[-122.35090499999998,47.646642]}},{"type":"Feature","properties":{"zip_code":"98105","no_stories":"3","confirmation_source":"Google Street View","city":"Seattle","year_built":"1938","state":"WA","neighborhood":"Univ Dist","building_use":"Public Assembly","preliminary_risk_category":"High Risk","retrofit_level":"No visible retrofit","address":"4554 12th Ave NE","estimated_number_of_occupants":"101+"},"geometry":{"type":"Point","coordinates":[-122.315277,47.662849]}},{"type":"Feature","properties":{"zip_code":"98104","no_stories":"3","confirmation_source":"Google Street View","city":"Seattle","year_built":"1889","state":"WA","neighborhood":"Pioneer Square/Chinatown International District","building_use":"Public Assembly","preliminary_risk_category":"High Risk","retrofit_level":"Permitted Retrofit","address":"319 2nd Ave S","estimated_number_of_occupants":"101+"},"geometry":{"type":"Point","coordinates":[-122.331594,47.599247]}},{"type":"Feature","properties":{"zip_code":"98104","no_stories":"1","confirmation_source":"Permit Drawing Review","city":"Seattle","year_built":"1921","state":"WA","neighborhood":"Pioneer Square/Chinatown International District","building_use":"Commercial","preliminary_risk_category":"Medium Risk","retrofit_level":"No visible retrofit","address":"1043 S Jackson St","estimated_number_of_occupants":"11-100"},"geometry":{"type":"Point","coordinates":[-122.31762299999998,47.599208]}},{"type":"Feature","properties":{"zip_code":"98104","no_stories":"7","confirmation_source":"Permit Drawing Review","city":"Seattle","year_built":"1907","state":"WA","neighborhood":"Duwamish/SODO","building_use":"Commercial/Office","preliminary_risk_category":"High Risk","retrofit_level":"Permitted Retrofit","address":"166 S King St","estimated_number_of_occupants":"101+"},"geometry":{"type":"Point","coordinates":[-122.33247,47.598274]}},{"type":"Feature","properties":{"zip_code":"98101","no_stories":"3","confirmation_source":"Permit Drawing Review","city":"Seattle","year_built":"1916","state":"WA","neighborhood":"First Hill","building_use":"Public Assembly","preliminary_risk_category":"High Risk","retrofit_level":"Substantial Alteration","address":"1119 8th Ave","estimated_number_of_occupants":"101+"},"geometry":{"type":"Point","coordinates":[-122.329589,47.609149]}},{"type":"Feature","properties":{"zip_code":"98109","no_stories":"1","confirmation_source":"Sandborn Insurance Maps","city":"Seattle","year_built":"1912","state":"WA","neighborhood":"Queen Anne","building_use":"Government","preliminary_risk_category":"Medium Risk","retrofit_level":"No visible retrofit","address":"371 Ward St","estimated_number_of_occupants":"1-10"},"geometry":{"type":"Point","coordinates":[-122.349633,47.62797700000001]}},{"type":"Feature","properties":{"zip_code":"98102","no_stories":"1","confirmation_source":"Permit Drawing Review","city":"Seattle","year_built":"1921","state":"WA","neighborhood":"North Capitol Hill","building_use":"Public Assembly","preliminary_risk_category":"High Risk","retrofit_level":"Substantial Alteration","address":"618 Broadway E","estimated_number_of_occupants":"101+"},"geometry":{"type":"Point","coordinates":[-122.32089800000001,47.62504]}},{"type":"Feature","properties":{"zip_code":"98133","no_stories":"2","confirmation_source":"Permit Drawing Review","city":"Seattle","year_built":"1938","state":"WA","neighborhood":"Broadview/Bitter Lake","building_use":"Schools","preliminary_risk_category":"Critical Risk","retrofit_level":"Permitted Retrofit","address":"415 N 117th St","estimated_number_of_occupants":"101+"},"geometry":{"type":"Point","coordinates":[-122.353404,47.714126]}},{"type":"Feature","properties":{"zip_code":"98118","no_stories":"1","confirmation_source":"Permit Drawing Review","city":"Seattle","year_built":"1913","state":"WA","neighborhood":"Columbia City","building_use":"Commercial","preliminary_risk_category":"Medium Risk","retrofit_level":"No visible retrofit","address":"4901 Rainier Ave S","estimated_number_of_occupants":"11-100"},"geometry":{"type":"Point","coordinates":[-122.285011,47.557747]}},